[
  {
    "name": "당산1동",
    "location": "서울시 영등포구 국회대로38길 18",
    "lat": "37.52545384",
    "lng": "126.8986723",
    "base_date": "2025-08-22 오전 12:00:00"
  },
  {
    "name": "당산1동",
    "location": "서울시 영등포구 양산로25길 3-1",
    "lat": "37.52411434",
    "lng": "126.8983853",
    "base_date": "2025-08-22 오전 12:00:00"
  },
  {
    "name": "당산1동",
    "location": "서울시 영등포구 당산로10길 21",
    "lat": "37.52169111",
    "lng": "126.8982972",
    "base_date": "2025-08-22 오전 12:00:00"
  },
  {
    "name": "당산1동",
    "location": "서울시 영등포구 당산로14길 10-1",
    "lat": "37.52227727",
    "lng": "126.897015",
    "base_date": "2025-08-22 오전 12:00:00"
  },
  {
    "name": "당산1동",
    "location": "서울시 영등포구 양산로23길 11",
    "lat": "37.52512811",
    "lng": "126.8974049",
    "base_date": "2025-08-22 오전 12:00:00"
  },
  {
    "name": "당산1동",
    "location": "서울시 영등포구 양산로23길 14",
    "lat": "",
    "lng": "",
    "base_date": "2025-08-22 오전 12:00:00"
  },
  {
    "name": "당산1동",
    "location": "서울시 영등포구 당산로32길 7-4",
    "lat": "37.52652031",
    "lng": "126.8977862",
    "base_date": "2025-08-22 오전 12:00:00"
  },
  {
    "name": "당산1동",
    "location": "서울시 영등포구 선유동1로 20-10",
    "lat": "37.52363063",
    "lng": "126.8923275",
    "base_date": "2025-08-22 오전 12:00:00"
  },
  {
    "name": "당산1동",
    "location": "서울시 영등포구 당산로27길 7",
    "lat": "37.5249831",
    "lng": "126.8955041",
    "base_date": "2025-08-22 오전 12:00:00"
  },
  {
    "name": "당산1동",
    "location": "서울시 영등포구 국회대로30길 14",
    "lat": "37.52698911",
    "lng": "126.8953256",
    "base_date": "2025-08-22 오전 12:00:00"
  },
  {
    "name": "당산1동",
    "location": "서울시 영등포구 영신로39길 14-1",
    "lat": "37.52182447",
    "lng": "126.8996821",
    "base_date": "2025-08-22 오전 12:00:00"
  },
  {
    "name": "당산1동",
    "location": "서울시 영등포구 영등포로28길 5",
    "lat": "37.51995668",
    "lng": "126.899242",
    "base_date": "2025-08-22 오전 12:00:00"
  },
  {
    "name": "문래동",
    "location": "서울시 영등포구 선유로3길 21",
    "lat": "37.51605543",
    "lng": "126.8853137",
    "base_date": "2025-08-22 오전 12:00:00"
  },
  {
    "name": "문래동",
    "location": "서울시 영등포구 선유로 28",
    "lat": "37.51640521",
    "lng": "126.8887147",
    "base_date": "2025-08-22 오전 12:00:00"
  },
  {
    "name": "문래동",
    "location": "서울시 영등포구 영등포로20길 22-8",
    "lat": "37.51995006",
    "lng": "126.8918587",
    "base_date": "2025-08-22 오전 12:00:00"
  },
  {
    "name": "문래동",
    "location": "서울시 영등포구 도림로128가길 1",
    "lat": "37.51442403",
    "lng": "126.8957676",
    "base_date": "2025-08-22 오전 12:00:00"
  },
  {
    "name": "양평1동",
    "location": "서울시 영등포구 선유서로 103-3",
    "lat": "37.52491776",
    "lng": "126.8857593",
    "base_date": "2025-08-22 오전 12:00:00"
  },
  {
    "name": "양평1동",
    "location": "서울시 영등포구 문래북로 57",
    "lat": "37.52091602",
    "lng": "126.8915548",
    "base_date": "2025-08-22 오전 12:00:00"
  },
  {
    "name": "양평1동",
    "location": "서울시 영등포구 영등포로5길 12",
    "lat": "",
    "lng": "",
    "base_date": "2025-08-22 오전 12:00:00"
  },
  {
    "name": "양평1동",
    "location": "서울시 영등포구 영등포로3길 23 육교 앞",
    "lat": "",
    "lng": "",
    "base_date": "2025-08-22 오전 12:00:00"
  },
  {
    "name": "양평1동",
    "location": "서울시 영등포구 양산로3길 9 건너편",
    "lat": "37.52642209",
    "lng": "126.8850352",
    "base_date": "2025-08-22 오전 12:00:00"
  },
  {
    "name": "양평1동",
    "location": "서울시 영등포구 선유서로31길 1 건너편",
    "lat": "37.52638471",
    "lng": "126.8861656",
    "base_date": "2025-08-22 오전 12:00:00"
  },
  {
    "name": "양평1동",
    "location": "서울시 영등포구 선유서로 129 건너편",
    "lat": "37.52722591",
    "lng": "126.8864672",
    "base_date": "2025-08-22 오전 12:00:00"
  },
  {
    "name": "양평1동",
    "location": "서울시 영등포구 선유서로34길 13 건너편",
    "lat": "37.52741176",
    "lng": "126.8875694",
    "base_date": "2025-08-22 오전 12:00:00"
  },
  {
    "name": "양평1동",
    "location": "서울시 영등포구 영등포로 14-3",
    "lat": "37.52277965",
    "lng": "126.8833253",
    "base_date": "2025-08-22 오전 12:00:00"
  },
  {
    "name": "양평1동",
    "location": "서울시 영등포구 양산로9길 15 건너편",
    "lat": "",
    "lng": "",
    "base_date": "2025-08-22 오전 12:00:00"
  },
  {
    "name": "양평1동",
    "location": "서울시 영등포구 선유로 149 건너편",
    "lat": "",
    "lng": "",
    "base_date": "2025-08-22 오전 12:00:00"
  },
  {
    "name": "양평1동",
    "location": "서울시 영등포구 문래북로 31 건너편",
    "lat": "37.52139269",
    "lng": "126.8887937",
    "base_date": "2025-08-22 오전 12:00:00"
  },
  {
    "name": "양평1동",
    "location": "서울시 영등포구 선유동1로 35",
    "lat": "37.52547616",
    "lng": "126.8919405",
    "base_date": "2025-08-22 오전 12:00:00"
  },
  {
    "name": "양평1동",
    "location": "서울시 영등포구 영등포로13길 20-1 맞은편",
    "lat": "",
    "lng": "",
    "base_date": "2025-08-22 오전 12:00:00"
  },
  {
    "name": "도림동",
    "location": "서울시 영등포구 도신로25길 5",
    "lat": "37.50788365",
    "lng": "126.9025314",
    "base_date": "2025-08-22 오전 12:00:00"
  },
  {
    "name": "도림동",
    "location": "서울시 영등포구 도림로112길 18",
    "lat": "37.50903795",
    "lng": "126.9020101",
    "base_date": "2025-08-22 오전 12:00:00"
  },
  {
    "name": "도림동",
    "location": "서울시 영등포구 도림로112길 6",
    "lat": "37.50862949",
    "lng": "126.9008946",
    "base_date": "2025-08-22 오전 12:00:00"
  },
  {
    "name": "도림동",
    "location": "서울시 영등포구 도림로108가길 3",
    "lat": "37.50767681",
    "lng": "126.9012685",
    "base_date": "2025-08-22 오전 12:00:00"
  },
  {
    "name": "도림동",
    "location": "서울시 영등포구 도림로 367",
    "lat": "",
    "lng": "",
    "base_date": "2025-08-22 오전 12:00:00"
  },
  {
    "name": "도림동",
    "location": "서울시 영등포구 도림로113길 3",
    "lat": "37.50867934",
    "lng": "126.8995338",
    "base_date": "2025-08-22 오전 12:00:00"
  },
  {
    "name": "도림동",
    "location": "서울시 영등포구 도림로113길 17",
    "lat": "37.50882997",
    "lng": "126.8979351",
    "base_date": "2025-08-22 오전 12:00:00"
  },
  {
    "name": "도림동",
    "location": "서울시 영등포구 도신로19길 5",
    "lat": "37.50682066",
    "lng": "126.9003934",
    "base_date": "2025-08-22 오전 12:00:00"
  },
  {
    "name": "도림동",
    "location": "서울시 영등포구 도신로15나길 13-9",
    "lat": "37.50702025",
    "lng": "126.8990279",
    "base_date": "2025-08-22 오전 12:00:00"
  },
  {
    "name": "도림동",
    "location": "서울시 영등포구 도신로15가길 2",
    "lat": "37.50608107",
    "lng": "126.8989617",
    "base_date": "2025-08-22 오전 12:00:00"
  },
  {
    "name": "도림동",
    "location": "서울시 영등포구 도신로15라길 2",
    "lat": "37.50702242",
    "lng": "126.8978818",
    "base_date": "2025-08-22 오전 12:00:00"
  },
  {
    "name": "도림동",
    "location": "서울시 영등포구 도신로15라길 5-7",
    "lat": "37.50785334",
    "lng": "126.897382",
    "base_date": "2025-08-22 오전 12:00:00"
  },
  {
    "name": "도림동",
    "location": "서울시 영등포구 도신로15길 31",
    "lat": "",
    "lng": "",
    "base_date": "2025-08-22 오전 12:00:00"
  },
  {
    "name": "도림동",
    "location": "서울시 영등포구 도신로15길 36",
    "lat": "37.50820309",
    "lng": "126.8967351",
    "base_date": "2025-08-22 오전 12:00:00"
  },
  {
    "name": "도림동",
    "location": "서울시 영등포구 도영로7길 12-7",
    "lat": "37.50978248",
    "lng": "126.8960392",
    "base_date": "2025-08-22 오전 12:00:00"
  },
  {
    "name": "도림동",
    "location": "서울시 영등포구 도영로11길 15",
    "lat": "37.51071645",
    "lng": "126.8968518",
    "base_date": "2025-08-22 오전 12:00:00"
  },
  {
    "name": "도림동",
    "location": "서울시 영등포구 도영로11길 6",
    "lat": "37.51042435",
    "lng": "126.897691",
    "base_date": "2025-08-22 오전 12:00:00"
  },
  {
    "name": "도림동",
    "location": "서울시 영등포구 영신로1길 8-5",
    "lat": "",
    "lng": "",
    "base_date": "2025-08-22 오전 12:00:00"
  },
  {
    "name": "도림동",
    "location": "서울시 영등포구 도신로 165",
    "lat": "",
    "lng": "",
    "base_date": "2025-08-22 오전 12:00:00"
  },
  {
    "name": "도림동",
    "location": "서울시 영등포구 도신로29라길 6",
    "lat": "37.50950072",
    "lng": "126.9055743",
    "base_date": "2025-08-22 오전 12:00:00"
  },
  {
    "name": "신길1동",
    "location": "서울시 영등포구 영등포로74길 14",
    "lat": "37.51330528",
    "lng": "126.9186287",
    "base_date": "2025-08-22 오전 12:00:00"
  },
  {
    "name": "신길1동",
    "location": "서울시 영등포구 영등포로84길 38",
    "lat": "37.50996203",
    "lng": "126.9219778",
    "base_date": "2025-08-22 오전 12:00:00"
  },
  {
    "name": "신길1동",
    "location": "서울시 영등포구 여의대방로47다길 16-9",
    "lat": "37.51080085",
    "lng": "126.9214242",
    "base_date": "2025-08-22 오전 12:00:00"
  },
  {
    "name": "신길1동",
    "location": "서울시 영등포구 영등포로84길 24-14",
    "lat": "37.51157802",
    "lng": "126.9214969",
    "base_date": "2025-08-22 오전 12:00:00"
  },
  {
    "name": "신길1동",
    "location": "서울시 영등포구 도신로62길 36",
    "lat": "37.50936967",
    "lng": "126.9197696",
    "base_date": "2025-08-22 오전 12:00:00"
  },
  {
    "name": "신길1동",
    "location": "서울시 영등포구 도신로62길 26-1",
    "lat": "37.51008587",
    "lng": "126.9189675",
    "base_date": "2025-08-22 오전 12:00:00"
  },
  {
    "name": "신길1동",
    "location": "서울시 영등포구 도신로58길 34",
    "lat": "37.5091097",
    "lng": "126.9168635",
    "base_date": "2025-08-22 오전 12:00:00"
  },
  {
    "name": "신길1동",
    "location": "서울시 영등포구 영등포로72길 35",
    "lat": "37.51095844",
    "lng": "126.9187574",
    "base_date": "2025-08-22 오전 12:00:00"
  },
  {
    "name": "신길1동",
    "location": "서울시 영등포구 영등포로79길 9",
    "lat": "37.51460728",
    "lng": "126.9212226",
    "base_date": "2025-08-22 오전 12:00:00"
  },
  {
    "name": "신길1동",
    "location": "서울시 영등포구 여의대방로59길 42-4",
    "lat": "37.5152613",
    "lng": "126.9218706",
    "base_date": "2025-08-22 오전 12:00:00"
  },
  {
    "name": "신길1동",
    "location": "서울시 영등포구 여의대방로61길 42",
    "lat": "37.51596302",
    "lng": "126.9220354",
    "base_date": "2025-08-22 오전 12:00:00"
  },
  {
    "name": "신길1동",
    "location": "서울시 영등포구 영등포로81길 6",
    "lat": "37.51385987",
    "lng": "126.9221306",
    "base_date": "2025-08-22 오전 12:00:00"
  },
  {
    "name": "신길1동",
    "location": "서울시 영등포구 도신로52길 11",
    "lat": "37.51042055",
    "lng": "126.9141816",
    "base_date": "2025-08-22 오전 12:00:00"
  },
  {
    "name": "신길3동",
    "location": "서울시 영등포구 신길로37길 13-1",
    "lat": "37.50736091",
    "lng": "126.9104193",
    "base_date": "2025-08-22 오전 12:00:00"
  },
  {
    "name": "신길3동",
    "location": "서울시 영등포구 가마산로61다길 9",
    "lat": "37.50617622",
    "lng": "126.9041495",
    "base_date": "2025-08-22 오전 12:00:00"
  },
  {
    "name": "신길3동",
    "location": "서울시 영등포구 신길로41나길 11",
    "lat": "37.5072575",
    "lng": "126.9089153",
    "base_date": "2025-08-22 오전 12:00:00"
  },
  {
    "name": "신길3동",
    "location": "서울시 영등포구 가마산로 51길 8 ",
    "lat": "37.50377911",
    "lng": "126.9011074",
    "base_date": "2025-08-22 오전 12:00:00"
  },
  {
    "name": "신길3동",
    "location": "서울시 영등포구 신길로39길 28",
    "lat": "37.50718204",
    "lng": "126.9079205",
    "base_date": "2025-08-22 오전 12:00:00"
  },
  {
    "name": "신길3동",
    "location": "서울시 영등포구 신길로41길 34",
    "lat": "37.50890327",
    "lng": "126.9074029",
    "base_date": "2025-08-22 오전 12:00:00"
  },
  {
    "name": "신길3동",
    "location": "서울시 영등포구 신길로41길 28-5",
    "lat": "37.5088075",
    "lng": "126.907988",
    "base_date": "2025-08-22 오전 12:00:00"
  },
  {
    "name": "신길3동",
    "location": "서울시 영등포구 신길로41라길 13-7",
    "lat": "37.50752245",
    "lng": "126.9079429",
    "base_date": "2025-08-22 오전 12:00:00"
  },
  {
    "name": "신길3동",
    "location": "서울시 영등포구 가마산로63길 25",
    "lat": "37.50762557",
    "lng": "126.90504",
    "base_date": "2025-08-22 오전 12:00:00"
  },
  {
    "name": "신길3동",
    "location": "서울시 영등포구 가마산로61길 24-7",
    "lat": "37.50735662",
    "lng": "126.9047068",
    "base_date": "2025-08-22 오전 12:00:00"
  },
  {
    "name": "신길3동",
    "location": "서울시 영등포구 가마산로61길 26",
    "lat": "37.50730806",
    "lng": "126.9042644",
    "base_date": "2025-08-22 오전 12:00:00"
  },
  {
    "name": "신길3동",
    "location": "서울시 영등포구 도신로24길6-1 ",
    "lat": "37.50683305",
    "lng": "126.9026622",
    "base_date": "2025-08-22 오전 12:00:00"
  },
  {
    "name": "신길3동",
    "location": "서울시 영등포구 신길로39길26-1 ",
    "lat": "37.50722231",
    "lng": "126.9082338",
    "base_date": "2025-08-22 오전 12:00:00"
  },
  {
    "name": "신길3동",
    "location": "서울시 영등포구 도신로 160",
    "lat": "37.50994842",
    "lng": "126.9092385",
    "base_date": "2025-08-22 오전 12:00:00"
  },
  {
    "name": "신길6동",
    "location": "서울시 영등포구 신풍로19가길 13",
    "lat": "37.50139068",
    "lng": "126.9173505",
    "base_date": "2025-08-22 오전 12:00:00"
  },
  {
    "name": "신길6동",
    "location": "서울시 영등포구 여의대방로31길 7",
    "lat": "37.50034147",
    "lng": "126.9195796",
    "base_date": "2025-08-22 오전 12:00:00"
  },
  {
    "name": "신길6동",
    "location": "서울시 영등포구 신풍로20길 1",
    "lat": "37.49970965",
    "lng": "126.9169316",
    "base_date": "2025-08-22 오전 12:00:00"
  },
  {
    "name": "신길6동",
    "location": "서울시 영등포구 신길로16길 9-1",
    "lat": "37.49816977",
    "lng": "126.9092554",
    "base_date": "2025-08-22 오전 12:00:00"
  },
  {
    "name": "신길6동",
    "location": "서울시 영등포구 여의대방로7길 9",
    "lat": "37.49732158",
    "lng": "126.9127439",
    "base_date": "2025-08-22 오전 12:00:00"
  },
  {
    "name": "신길6동",
    "location": "서울시 영등포구 신길로8길 5",
    "lat": "37.49569374",
    "lng": "126.9091698",
    "base_date": "2025-08-22 오전 12:00:00"
  },
  {
    "name": "신길6동",
    "location": "서울시 영등포구 신길로8길 9-15",
    "lat": "37.49631087",
    "lng": "126.9090982",
    "base_date": "2025-08-22 오전 12:00:00"
  },
  {
    "name": "신길6동",
    "location": "서울시 영등포구 신풍로12가길 1-6",
    "lat": "37.49935592",
    "lng": "126.9125699",
    "base_date": "2025-08-22 오전 12:00:00"
  },
  {
    "name": "신길6동",
    "location": "서울시 영등포구 신풍로14길 2",
    "lat": "37.49971196",
    "lng": "126.9148528",
    "base_date": "2025-08-22 오전 12:00:00"
  },
  {
    "name": "신길6동",
    "location": "서울시 영등포구 여의대방로27길 2",
    "lat": "37.49948191",
    "lng": "126.9198425",
    "base_date": "2025-08-22 오전 12:00:00"
  },
  {
    "name": "신길6동",
    "location": "서울시 영등포구 신풍로22길 10",
    "lat": "37.4995202",
    "lng": "126.9181331",
    "base_date": "2025-08-22 오전 12:00:00"
  },
  {
    "name": "신길6동",
    "location": "서울시 영등포구 신풍로 31-1",
    "lat": "37.50062355",
    "lng": "126.9099333",
    "base_date": "2025-08-22 오전 12:00:00"
  },
  {
    "name": "신길6동",
    "location": "서울시 영등포구 신풍로14길 7",
    "lat": "37.49909364",
    "lng": "126.9150473",
    "base_date": "2025-08-22 오전 12:00:00"
  },
  {
    "name": "신길6동",
    "location": "서울시 영등포구 신풍로 14길 2",
    "lat": "37.49971",
    "lng": "126.91485",
    "base_date": "2025-08-22 오전 12:00:00"
  },
  {
    "name": "신길6동",
    "location": "서울시 영등포구 신풍로 31-7",
    "lat": "37.50063",
    "lng": "126.9101",
    "base_date": "2025-08-22 오전 12:00:00"
  },
  {
    "name": "신길제7동",
    "location": "서울시 영등포구 여의대방로45길 5",
    "lat": "37.50768248",
    "lng": "126.9225161",
    "base_date": "2025-08-22 오전 12:00:00"
  },
  {
    "name": "신길제7동",
    "location": "서울시 영등포구 여의대방로45길 15",
    "lat": "37.50827094",
    "lng": "126.9219878",
    "base_date": "2025-08-22 오전 12:00:00"
  },
  {
    "name": "신길제7동",
    "location": "서울시 영등포구 여의대방로49길 15-1",
    "lat": "37.50989937",
    "lng": "126.9223382",
    "base_date": "2025-08-22 오전 12:00:00"
  },
  {
    "name": "신길제7동",
    "location": "서울시 영등포구 여의대방로53가길 2",
    "lat": "37.51144852",
    "lng": "126.9233855",
    "base_date": "2025-08-22 오전 12:00:00"
  },
  {
    "name": "신길제7동",
    "location": "서울시 영등포구 여의대방로53가길 10",
    "lat": "37.51083347",
    "lng": "126.9232004",
    "base_date": "2025-08-22 오전 12:00:00"
  },
  {
    "name": "신길제7동",
    "location": "서울시 영등포구 여의대방로53가길 26-1",
    "lat": "37.50933621",
    "lng": "126.9225666",
    "base_date": "2025-08-22 오전 12:00:00"
  },
  {
    "name": "신길제7동",
    "location": "서울시 영등포구 여의대방로43길 11-5",
    "lat": "37.505696",
    "lng": "126.921454",
    "base_date": "2025-08-22 오전 12:00:00"
  },
  {
    "name": "신길제7동",
    "location": "서울시 영등포구 여의대방로43길 1",
    "lat": "37.506112",
    "lng": "126.922133",
    "base_date": "2025-08-22 오전 12:00:00"
  },
  {
    "name": "신길제7동",
    "location": "서울시 영등포구 여의대방로 249",
    "lat": "37.50904",
    "lng": "126.92273",
    "base_date": "2025-08-22 오전 12:00:00"
  },
  {
    "name": "신길제7동",
    "location": "서울시 영등포구 여의대방로53가길 22-1",
    "lat": "37.509901",
    "lng": "126.922959",
    "base_date": "2025-08-22 오전 12:00:00"
  }
]