[
  {
    "name": "박O국",
    "location": "경상북도 울진읍 월변 8길 29",
    "lat": "36.984815",
    "lng": "129.398941",
    "base_date": "2025-02-03"
  },
  {
    "name": "박O국",
    "location": "경상북도 울진읍 강변로 14",
    "lat": "36.984428",
    "lng": "129.398388",
    "base_date": "2025-02-03"
  },
  {
    "name": "박O국",
    "location": "경상북도 울진읍 울진중앙로 41-15",
    "lat": "36.985586",
    "lng": "129.396583",
    "base_date": "2025-02-03"
  },
  {
    "name": "박O국",
    "location": "경상북도 울진읍 월변4길 30",
    "lat": "36.987585",
    "lng": "129.397445",
    "base_date": "2025-02-03"
  },
  {
    "name": "박O국",
    "location": "경상북도 울진읍 월변 4길 9",
    "lat": "36.988336",
    "lng": "129.397713",
    "base_date": "2025-02-03"
  },
  {
    "name": "박O국",
    "location": "경상북도 울진읍 월변 2길 14",
    "lat": "36.989153",
    "lng": "129.398253",
    "base_date": "2025-02-03"
  },
  {
    "name": "박O국",
    "location": "경상북도 울진읍 월변 3길 21",
    "lat": "36.99003",
    "lng": "129.398581",
    "base_date": "2025-02-03"
  },
  {
    "name": "박O국",
    "location": "경상북도 울진읍 월변 3길 42",
    "lat": "36.990748",
    "lng": "129.397814",
    "base_date": "2025-02-03"
  },
  {
    "name": "박O국",
    "location": "경상북도 울진읍 월변3길 94",
    "lat": "36.992545",
    "lng": "129.396036",
    "base_date": "2025-02-03"
  },
  {
    "name": "박O국",
    "location": "경상북도 울진읍 강변로 81",
    "lat": "36.989314",
    "lng": "129.400539",
    "base_date": "2025-02-03"
  },
  {
    "name": "박O국",
    "location": "경상북도 울진읍 강변로 83-3",
    "lat": "36.989054",
    "lng": "129.400329",
    "base_date": "2025-02-03"
  },
  {
    "name": "박O국",
    "location": "경상북도 울진읍 월변 5길 21",
    "lat": "36.988465",
    "lng": "129.399911",
    "base_date": "2025-02-03"
  },
  {
    "name": "박O국",
    "location": "경상북도 울진읍 강변로 59",
    "lat": "36.986866",
    "lng": "129.40099",
    "base_date": "2025-02-03"
  },
  {
    "name": "박O국",
    "location": "경상북도 울진읍 월변 8길 39",
    "lat": "36.984937",
    "lng": "129.400092",
    "base_date": "2025-02-03"
  },
  {
    "name": "박O국",
    "location": "경상북도 울진읍 강변로 47-3",
    "lat": "36.986119",
    "lng": "129.400874",
    "base_date": "2025-02-03"
  },
  {
    "name": "박O국",
    "location": "경상북도 울진읍 말루길 8-9",
    "lat": "36.998704",
    "lng": "129.402417",
    "base_date": "2025-02-03"
  },
  {
    "name": "박O국",
    "location": "경상북도 울진읍 공세항길 19-3",
    "lat": "36.989559",
    "lng": "129.403494",
    "base_date": "2025-02-03"
  },
  {
    "name": "박O국",
    "location": "경상북도 울진읍 읍내로 33",
    "lat": "36.990501",
    "lng": "129.403101",
    "base_date": "2025-02-03"
  },
  {
    "name": "박O국",
    "location": "경상북도 울진읍 읍내로 41",
    "lat": "36.991282",
    "lng": "129.403483",
    "base_date": "2025-02-03"
  },
  {
    "name": "박O국",
    "location": "경상북도 울진읍 공세항길 19-44",
    "lat": "36.991106",
    "lng": "129.404497",
    "base_date": "2025-02-03"
  },
  {
    "name": "박O국",
    "location": "경상북도 울진읍 공세항길 19-57",
    "lat": "36.991653",
    "lng": "129.405201",
    "base_date": "2025-02-03"
  },
  {
    "name": "박O국",
    "location": "경상북도 울진읍 현내항길 42-1",
    "lat": "36.991752",
    "lng": "129.405563",
    "base_date": "2025-02-03"
  },
  {
    "name": "박O국",
    "location": "경상북도 울진읍 현내항길 48",
    "lat": "36.992234",
    "lng": "129.406622",
    "base_date": "2025-02-03"
  },
  {
    "name": "박O국",
    "location": "경상북도 울진읍 연호로 38",
    "lat": "36.993663",
    "lng": "129.405702",
    "base_date": "2025-02-03"
  },
  {
    "name": "박O국",
    "location": "경상북도 울진읍 읍내8길 41-26",
    "lat": "36.995391",
    "lng": "129.403801",
    "base_date": "2025-02-03"
  },
  {
    "name": "박O국",
    "location": "경상북도 울진읍 현내항길 163-4",
    "lat": "36.991097",
    "lng": "129.413187",
    "base_date": "2025-02-03"
  },
  {
    "name": "엘리자원",
    "location": "경상북도 울진읍 현내항길 163-4",
    "lat": "36.991022",
    "lng": "129.41335",
    "base_date": "2025-02-03"
  },
  {
    "name": "박O국",
    "location": "경상북도 울진읍 현내항길 153",
    "lat": "36.99077",
    "lng": "129.411993",
    "base_date": "2025-02-03"
  },
  {
    "name": "박O국",
    "location": "경상북도 울진읍 새마실1길 32",
    "lat": "36.998283",
    "lng": "129.399514",
    "base_date": "2025-02-03"
  },
  {
    "name": "엘리자원",
    "location": "경상북도 울진읍 읍내로 66",
    "lat": "36.993186",
    "lng": "129.4051",
    "base_date": "2025-02-03"
  },
  {
    "name": "박O국",
    "location": "경상북도 울진읍 읍내 3길 37-13",
    "lat": "36.993397",
    "lng": "129.403222",
    "base_date": "2025-02-03"
  },
  {
    "name": "박O국",
    "location": "경상북도 울진읍 읍내 9길 27",
    "lat": "36.995917",
    "lng": "129.403068",
    "base_date": "2025-02-03"
  },
  {
    "name": "박O국",
    "location": "경상북도 울진읍 새마실 2길 15",
    "lat": "36.998555",
    "lng": "129.40211",
    "base_date": "2025-02-03"
  },
  {
    "name": "박O국",
    "location": "경상북도 울진읍 새마실 2길 24",
    "lat": "36.998564",
    "lng": "129.402386",
    "base_date": "2025-02-03"
  },
  {
    "name": "박O국",
    "location": "경상북도 울진읍 새마실 4길 66",
    "lat": "37.000276",
    "lng": "129.402395",
    "base_date": "2025-02-03"
  },
  {
    "name": "박O국",
    "location": "경상북도 울진읍 새마실 4길 16",
    "lat": "36.998681",
    "lng": "129.403459",
    "base_date": "2025-02-03"
  },
  {
    "name": "박O국",
    "location": "경상북도 울진읍 새마실 5길 55",
    "lat": "37.000251",
    "lng": "129.403584",
    "base_date": "2025-02-03"
  },
  {
    "name": "박O국",
    "location": "경상북도 울진읍 새마실 5길 45",
    "lat": "36.99978",
    "lng": "129.40381",
    "base_date": "2025-02-03"
  },
  {
    "name": "박O국",
    "location": "경상북도 울진읍 새마실로 25-8",
    "lat": "36.998402",
    "lng": "129.404597",
    "base_date": "2025-02-03"
  },
  {
    "name": "박O국",
    "location": "경상북도 울진읍 읍내 10길 2",
    "lat": "36.996585",
    "lng": "129.401793",
    "base_date": "2025-02-03"
  },
  {
    "name": "박O국",
    "location": "경상북도 울진읍 읍내 11길 9",
    "lat": "36.996323",
    "lng": "129.400923",
    "base_date": "2025-02-03"
  },
  {
    "name": "박O국",
    "location": "경상북도 울진읍 읍내 11길 10",
    "lat": "36.996492",
    "lng": "129.400711",
    "base_date": "2025-02-03"
  },
  {
    "name": "박O국",
    "location": "경상북도 울진읍 울진 중앙로 141-5",
    "lat": "36.994166",
    "lng": "129.400925",
    "base_date": "2025-02-03"
  },
  {
    "name": "박O국",
    "location": "경상북도 울진읍 고성1길 61-14",
    "lat": "37.000038",
    "lng": "129.393413",
    "base_date": "2025-02-03"
  },
  {
    "name": "박O국",
    "location": "경상북도 울진읍 향교로 36",
    "lat": "36.993647",
    "lng": "129.398166",
    "base_date": "2025-02-03"
  },
  {
    "name": "박O국",
    "location": "경상북도 울진읍 향교로 24",
    "lat": "36.992771",
    "lng": "129.398894",
    "base_date": "2025-02-03"
  },
  {
    "name": "박O국",
    "location": "경상북도 울진읍 새마실 1길 32",
    "lat": "36.998321",
    "lng": "129.399495",
    "base_date": "2025-02-03"
  },
  {
    "name": "박O국",
    "location": "경상북도 울진읍 새마실 1길 34",
    "lat": "36.99864",
    "lng": "129.399554",
    "base_date": "2025-02-03"
  },
  {
    "name": "박O국",
    "location": "경상북도 울진읍 새마실 1길 14",
    "lat": "36.998146",
    "lng": "129.400649",
    "base_date": "2025-02-03"
  },
  {
    "name": "박O국",
    "location": "경상북도 울진읍 울진중앙로 190",
    "lat": "36.99908",
    "lng": "129.401375",
    "base_date": "2025-02-03"
  },
  {
    "name": "박O국",
    "location": "경상북도 울진읍 울진 중앙로 202",
    "lat": "36.999532",
    "lng": "129.401101",
    "base_date": "2025-02-03"
  },
  {
    "name": "박O국",
    "location": "경상북도 울진읍 새마실 3길 57",
    "lat": "37.0023",
    "lng": "129.401453",
    "base_date": "2025-02-03"
  },
  {
    "name": "윤O숙",
    "location": "경상북도 울진읍 새마실 3길 57",
    "lat": "37.0023",
    "lng": "129.401453",
    "base_date": "2025-02-03"
  },
  {
    "name": "박O국",
    "location": "경상북도 울진읍 온양2길 74",
    "lat": "37.015203",
    "lng": "129.413327",
    "base_date": "2025-02-03"
  },
  {
    "name": "윤O숙",
    "location": "경상북도 울진읍 새마실 3길 41-2",
    "lat": "37.000888",
    "lng": "129.401588",
    "base_date": "2025-02-03"
  },
  {
    "name": "윤O숙",
    "location": "경상북도 울진읍 새마실 4길 30",
    "lat": "36.99885",
    "lng": "129.403273",
    "base_date": "2025-02-03"
  },
  {
    "name": "윤O숙",
    "location": "경상북도 울진읍 새마실로 15",
    "lat": "36.997853",
    "lng": "129.40364",
    "base_date": "2025-02-03"
  },
  {
    "name": "엘리자원",
    "location": "경상북도 울진읍 새마실로 15",
    "lat": "36.997853",
    "lng": "129.40364",
    "base_date": "2025-02-03"
  },
  {
    "name": "윤O숙",
    "location": "경상북도 울진읍 읍내로 53",
    "lat": "36.992179",
    "lng": "129.404175",
    "base_date": "2025-02-03"
  },
  {
    "name": "윤O숙",
    "location": "경상북도 울진읍 월변 4길 45",
    "lat": "36.986932",
    "lng": "129.397302",
    "base_date": "2025-02-03"
  },
  {
    "name": "윤O숙",
    "location": "경상북도 울진읍 월변 3길 62",
    "lat": "36.99145",
    "lng": "129.397202",
    "base_date": "2025-02-03"
  },
  {
    "name": "윤O숙",
    "location": "경상북도 울진읍 강변로 157",
    "lat": "36.993991",
    "lng": "129.395086",
    "base_date": "2025-02-03"
  },
  {
    "name": "윤O숙",
    "location": "경상북도 울진읍 향교로 12",
    "lat": "36.99207",
    "lng": "129.399803",
    "base_date": "2025-02-03"
  },
  {
    "name": "엘리자원",
    "location": "경상북도 울진읍 월변8길 19",
    "lat": "36.984953",
    "lng": "129.398371",
    "base_date": "2025-02-03"
  },
  {
    "name": "엘리자원",
    "location": "경상북도 울진읍 읍내리 187",
    "lat": "36.985926",
    "lng": "129.398681",
    "base_date": "2025-02-03"
  },
  {
    "name": "엘리자원",
    "location": "경상북도 울진읍 강변로 99",
    "lat": "36.99053",
    "lng": "129.39937",
    "base_date": "2025-02-03"
  },
  {
    "name": "엘리자원",
    "location": "경상북도 울진읍 옥계현충길 34-3",
    "lat": "36.994751",
    "lng": "129.399284",
    "base_date": "2025-02-03"
  },
  {
    "name": "엘리자원",
    "location": "경상북도 울진읍 읍내8길 17-16",
    "lat": "36.995357",
    "lng": "129.402352",
    "base_date": "2025-02-03"
  },
  {
    "name": "엘리자원",
    "location": "경상북도 울진읍 새마실로 46",
    "lat": "36.999328",
    "lng": "129.405487",
    "base_date": "2025-02-03"
  },
  {
    "name": "엘리자원",
    "location": "경상북도 울진읍 읍내리 2-10",
    "lat": "36.994122",
    "lng": "129.404538",
    "base_date": "2025-02-03"
  },
  {
    "name": "엘리자원",
    "location": "경상북도 울진읍 읍내리 545",
    "lat": "36.993209",
    "lng": "129.404935",
    "base_date": "2025-02-03"
  },
  {
    "name": "엘리자원",
    "location": "경상북도 울진읍 공세항길 19-47",
    "lat": "36.991186",
    "lng": "129.404526",
    "base_date": "2025-02-03"
  },
  {
    "name": "엘리자원",
    "location": "경상북도 울진읍 읍내리 13-1",
    "lat": "36.992266",
    "lng": "129.406707",
    "base_date": "2025-02-03"
  },
  {
    "name": "엘리자원",
    "location": "경상북도 울진읍 현내항길 71",
    "lat": "36.9932",
    "lng": "129.409882",
    "base_date": "2025-02-03"
  },
  {
    "name": "엘리자원",
    "location": "경상북도 울진읍 토일1길 70-2",
    "lat": "36.977867",
    "lng": "129.395467",
    "base_date": "2025-02-03"
  },
  {
    "name": "엘리자원",
    "location": "경상북도 울진읍 울진북로 636-2",
    "lat": "37.003114",
    "lng": "129.400917",
    "base_date": "2025-02-03"
  },
  {
    "name": "박O국",
    "location": "경상북도 울진읍 울진북로 925",
    "lat": "37.024055",
    "lng": "129.408595",
    "base_date": "2025-02-03"
  },
  {
    "name": "박O국",
    "location": "경상북도 울진읍 울진북로 967",
    "lat": "37.027343",
    "lng": "129.408887",
    "base_date": "2025-02-03"
  },
  {
    "name": "박O일",
    "location": "경상북도 평해읍 월송길 209",
    "lat": "36.741966",
    "lng": "129.461697",
    "base_date": "2025-02-03"
  },
  {
    "name": "박O일",
    "location": "경상북도 평해읍 월송길 199",
    "lat": "36.741439",
    "lng": "129.461278",
    "base_date": "2025-02-03"
  },
  {
    "name": "박O일",
    "location": "경상북도 평해읍 월송길 183",
    "lat": "36.740869",
    "lng": "129.461115",
    "base_date": "2025-02-03"
  },
  {
    "name": "박O일",
    "location": "경상북도 평해읍 월송길 168-5",
    "lat": "36.740503",
    "lng": "129.460953",
    "base_date": "2025-02-03"
  },
  {
    "name": "박O일",
    "location": "경상북도 평해읍 월송길 95",
    "lat": "36.736928",
    "lng": "129.460506",
    "base_date": "2025-02-03"
  },
  {
    "name": "박O일",
    "location": "경상북도 평해읍 월송3길 36-71",
    "lat": "36.743294",
    "lng": "129.460864",
    "base_date": "2025-02-03"
  },
  {
    "name": "박O일",
    "location": "경상북도 평해읍 월송리 721-7",
    "lat": "36.735925",
    "lng": "129.462516",
    "base_date": "2025-02-03"
  },
  {
    "name": "박O일",
    "location": "경상북도 평해읍 정산길 3",
    "lat": "36.730456",
    "lng": "129.457879",
    "base_date": "2025-02-03"
  },
  {
    "name": "박O일",
    "location": "경상북도 평해읍 평해 7길 55",
    "lat": "36.727883",
    "lng": "129.444466",
    "base_date": "2025-02-03"
  },
  {
    "name": "박O일",
    "location": "경상북도 평해읍 평해7길 31",
    "lat": "36.72773",
    "lng": "129.443211",
    "base_date": "2025-02-03"
  },
  {
    "name": "박O일",
    "location": "경상북도 평해읍 평해7길 16-1",
    "lat": "36.727471",
    "lng": "129.442425",
    "base_date": "2025-02-03"
  },
  {
    "name": "박O일",
    "location": "경상북도 평해읍 평해로 85",
    "lat": "36.728139",
    "lng": "129.440442",
    "base_date": "2025-02-03"
  },
  {
    "name": "박O일",
    "location": "경상북도 평해읍 평해로 82-42",
    "lat": "36.727867",
    "lng": "129.441589",
    "base_date": "2025-02-03"
  },
  {
    "name": "박O일",
    "location": "경상북도 평해읍 평해로 77",
    "lat": "36.727149",
    "lng": "129.441517",
    "base_date": "2025-02-03"
  },
  {
    "name": "박O일",
    "location": "경상북도 평해읍 평해 5길 16",
    "lat": "36.726388",
    "lng": "129.440725",
    "base_date": "2025-02-03"
  },
  {
    "name": "박O일",
    "location": "경상북도 평해읍 평해 8길 23",
    "lat": "36.72701",
    "lng": "129.440172",
    "base_date": "2025-02-03"
  },
  {
    "name": "박O일",
    "location": "경상북도 평해읍 평해 5길 38",
    "lat": "36.726433",
    "lng": "129.439573",
    "base_date": "2025-02-03"
  },
  {
    "name": "박O일",
    "location": "경상북도 평해읍 평해5길 66",
    "lat": "36.725361",
    "lng": "129.439062",
    "base_date": "2025-02-03"
  },
  {
    "name": "박O일",
    "location": "경상북도 평해읍 평해5길 61-4",
    "lat": "36.725263",
    "lng": "129.439298",
    "base_date": "2025-02-03"
  },
  {
    "name": "박O일",
    "location": "경상북도 평해읍 평해5길 50",
    "lat": "36.725853",
    "lng": "129.439376",
    "base_date": "2025-02-03"
  },
  {
    "name": "박O일",
    "location": "경상북도 평해읍 평해2길 10",
    "lat": "36.724635",
    "lng": "129.438816",
    "base_date": "2025-02-03"
  },
  {
    "name": "박O일",
    "location": "경상북도 평해읍 평해1길 8",
    "lat": "36.722931",
    "lng": "129.440408",
    "base_date": "2025-02-03"
  },
  {
    "name": "박O일",
    "location": "경상북도 평해읍 평해1길 13-1",
    "lat": "36.723002",
    "lng": "129.440981",
    "base_date": "2025-02-03"
  },
  {
    "name": "박O일",
    "location": "경상북도 평해읍 제장로 147-4",
    "lat": "36.734063",
    "lng": "129.475706",
    "base_date": "2025-02-03"
  },
  {
    "name": "박O일",
    "location": "경상북도 평해읍 제장로 129",
    "lat": "36.73258",
    "lng": "129.475802",
    "base_date": "2025-02-03"
  },
  {
    "name": "박O일",
    "location": "경상북도 평해읍 직고개길 55-13",
    "lat": "36.7234",
    "lng": "129.417603",
    "base_date": "2025-02-03"
  },
  {
    "name": "박O일",
    "location": "경상북도 평해읍 울진대게로 787-1",
    "lat": "36.721155",
    "lng": "129.471476",
    "base_date": "2025-02-03"
  },
  {
    "name": "박O일",
    "location": "경상북도 평해읍 직고개길 17",
    "lat": "36.719243",
    "lng": "129.471023",
    "base_date": "2025-02-03"
  },
  {
    "name": "박O일",
    "location": "경상북도 평해읍 울진대게로 689",
    "lat": "36.71245",
    "lng": "129.473974",
    "base_date": "2025-02-03"
  },
  {
    "name": "박O일",
    "location": "경상북도 평해읍 울진대게로 675",
    "lat": "36.711406",
    "lng": "129.474673",
    "base_date": "2025-02-03"
  },
  {
    "name": "박O일",
    "location": "경상북도 평해읍 기알길 31-3",
    "lat": "36.702744",
    "lng": "129.475111",
    "base_date": "2025-02-03"
  },
  {
    "name": "박O일",
    "location": "경상북도 평해읍 울진대게로 525",
    "lat": "36.698813",
    "lng": "129.475459",
    "base_date": "2025-02-03"
  },
  {
    "name": "박O일",
    "location": "경상북도 평해읍 울진대게로 497-1",
    "lat": "36.697168",
    "lng": "129.472987",
    "base_date": "2025-02-03"
  },
  {
    "name": "박O국",
    "location": "경상북도 북면 석호1길 25",
    "lat": "37.112361",
    "lng": "129.374393",
    "base_date": "2025-02-03"
  },
  {
    "name": "엘리자원",
    "location": "경상북도 북면 석호1길 25",
    "lat": "37.112361",
    "lng": "129.374393",
    "base_date": "2025-02-03"
  },
  {
    "name": "박O국",
    "location": "경상북도 북면 부구 3길 14-3",
    "lat": "37.104555",
    "lng": "129.372562",
    "base_date": "2025-02-03"
  },
  {
    "name": "엘리자원",
    "location": "경상북도 북면 덕구온천로 12",
    "lat": "37.100844",
    "lng": "129.371238",
    "base_date": "2025-02-03"
  },
  {
    "name": "박O국",
    "location": "경상북도 북면 덕구온천로 28",
    "lat": "37.100723",
    "lng": "129.370078",
    "base_date": "2025-02-03"
  },
  {
    "name": "엘리자원",
    "location": "경상북도 북면 흥부길 77",
    "lat": "37.101819",
    "lng": "129.367178",
    "base_date": "2025-02-03"
  },
  {
    "name": "박O국",
    "location": "경상북도 북면 흥부길 77",
    "lat": "37.101819",
    "lng": "129.367178",
    "base_date": "2025-02-03"
  },
  {
    "name": "엘리자원",
    "location": "경상북도 북면 흥부길 4-10",
    "lat": "37.101324",
    "lng": "129.364784",
    "base_date": "2025-02-03"
  },
  {
    "name": "박O국",
    "location": "경상북도 북면 흥부길 57-2",
    "lat": "37.102064",
    "lng": "129.365008",
    "base_date": "2025-02-03"
  },
  {
    "name": "엘리자원",
    "location": "경상북도 북면 흥부길 57-2",
    "lat": "37.102064",
    "lng": "129.365008",
    "base_date": "2025-02-03"
  },
  {
    "name": "박O국",
    "location": "경상북도 북면 부구리 854-18",
    "lat": "37.099503",
    "lng": "129.358568",
    "base_date": "2025-02-03"
  },
  {
    "name": "박O국",
    "location": "경상북도 북면 부구리 1010-2",
    "lat": "37.096589",
    "lng": "129.352293",
    "base_date": "2025-02-03"
  },
  {
    "name": "엘리자원",
    "location": "경상북도 북면 부구6길 20",
    "lat": "37.102516",
    "lng": "129.369211",
    "base_date": "2025-02-03"
  },
  {
    "name": "엘리자원",
    "location": "경상북도 북면 덕구온천로 46-8",
    "lat": "37.100713",
    "lng": "129.367367",
    "base_date": "2025-02-03"
  },
  {
    "name": "엘리자원",
    "location": "경상북도 북면 부구리 163-43",
    "lat": "37.104719",
    "lng": "129.375677",
    "base_date": "2025-02-03"
  },
  {
    "name": "엘리자원",
    "location": "경상북도 북면 나실길 18",
    "lat": "37.126482",
    "lng": "129.370217",
    "base_date": "2025-02-03"
  },
  {
    "name": "박O국",
    "location": "경상북도 근남면 비월길 3",
    "lat": "36.953136",
    "lng": "129.374019",
    "base_date": "2025-02-03"
  },
  {
    "name": "박O국",
    "location": "경상북도 근남면 뒷들교",
    "lat": "36.951206",
    "lng": "129.378353",
    "base_date": "2025-02-03"
  },
  {
    "name": "박O국",
    "location": "경상북도 근남면 노음 3길 1",
    "lat": "36.9622",
    "lng": "129.395451",
    "base_date": "2025-02-03"
  },
  {
    "name": "박O국",
    "location": "경상북도 근남면 노음 4길 16",
    "lat": "36.962305",
    "lng": "129.39358",
    "base_date": "2025-02-03"
  },
  {
    "name": "박O국",
    "location": "경상북도 근남면 노음5길 7",
    "lat": "36.961245",
    "lng": "129.394266",
    "base_date": "2025-02-03"
  },
  {
    "name": "박O국",
    "location": "경상북도 근남면 노음4길 1",
    "lat": "36.961824",
    "lng": "129.395027",
    "base_date": "2025-02-03"
  },
  {
    "name": "엘리자원",
    "location": "경상북도 근남면 망양정로 1177",
    "lat": "36.964246",
    "lng": "129.39831",
    "base_date": "2025-02-03"
  },
  {
    "name": "박O국",
    "location": "경상북도 근남면 수산 2길 38",
    "lat": "36.967753",
    "lng": "129.398236",
    "base_date": "2025-02-03"
  },
  {
    "name": "박O국",
    "location": "경상북도 매화면 매화1길 92",
    "lat": "36.91275",
    "lng": "129.382496",
    "base_date": "2025-02-03"
  },
  {
    "name": "박O국",
    "location": "경상북도 매화면 매화2길 36-29",
    "lat": "36.909121",
    "lng": "129.379669",
    "base_date": "2025-02-03"
  },
  {
    "name": "박O국",
    "location": "경상북도 매화면 매화2길 21",
    "lat": "36.910601",
    "lng": "129.380113",
    "base_date": "2025-02-03"
  },
  {
    "name": "박O국",
    "location": "경상북도 매화면 매화매실길 76",
    "lat": "36.918067",
    "lng": "129.378641",
    "base_date": "2025-02-03"
  },
  {
    "name": "박O국",
    "location": "경상북도 매화면 매화 매실길 255",
    "lat": "36.924584",
    "lng": "129.377372",
    "base_date": "2025-02-03"
  },
  {
    "name": "박O국",
    "location": "경상북도 매화면 매화 매실길 483",
    "lat": "36.934749",
    "lng": "129.377079",
    "base_date": "2025-02-03"
  },
  {
    "name": "박O국",
    "location": "경상북도 매화면 금매길 37-1",
    "lat": "36.933312",
    "lng": "129.383817",
    "base_date": "2025-02-03"
  },
  {
    "name": "박O국",
    "location": "경상북도 매화면 망양정로 67",
    "lat": "36.890404",
    "lng": "129.415045",
    "base_date": "2025-02-03"
  },
  {
    "name": "박O국",
    "location": "경상북도 기성면 구산길 38",
    "lat": "36.754891",
    "lng": "129.466421",
    "base_date": "2025-02-03"
  },
  {
    "name": "박O국",
    "location": "경상북도 기성면 구산길 66-4",
    "lat": "36.75592",
    "lng": "129.466531",
    "base_date": "2025-02-03"
  },
  {
    "name": "박O국",
    "location": "경상북도 기성면 구산길 114",
    "lat": "36.758223",
    "lng": "129.467266",
    "base_date": "2025-02-03"
  },
  {
    "name": "박O국",
    "location": "경상북도 기성면 구산길 151",
    "lat": "36.759478",
    "lng": "129.468751",
    "base_date": "2025-02-03"
  },
  {
    "name": "박O국",
    "location": "경상북도 기성면 척산 1길 19-2",
    "lat": "36.794331",
    "lng": "129.450395",
    "base_date": "2025-02-03"
  },
  {
    "name": "박O국",
    "location": "경상북도 기성면 척산길 51-21",
    "lat": "36.796867",
    "lng": "129.45151",
    "base_date": "2025-02-03"
  },
  {
    "name": "박O국",
    "location": "경상북도 기성면 척산길 76",
    "lat": "36.79843",
    "lng": "129.451834",
    "base_date": "2025-02-03"
  },
  {
    "name": "박O국",
    "location": "경상북도 기성면 기성본길 80",
    "lat": "36.801031",
    "lng": "129.456611",
    "base_date": "2025-02-03"
  },
  {
    "name": "박O국",
    "location": "경상북도 기성면 사동항길 369",
    "lat": "36.826061",
    "lng": "129.446004",
    "base_date": "2025-02-03"
  },
  {
    "name": "박O국",
    "location": "경상북도 기성면 망양로 103",
    "lat": "36.845439",
    "lng": "129.430597",
    "base_date": "2025-02-03"
  },
  {
    "name": "박O국",
    "location": "경상북도 기성면 망양골안길 4",
    "lat": "36.852062",
    "lng": "129.426758",
    "base_date": "2025-02-03"
  },
  {
    "name": "박O국",
    "location": "경상북도 기성면 현종산길 14",
    "lat": "36.881422",
    "lng": "129.414516",
    "base_date": "2025-02-03"
  },
  {
    "name": "박O국",
    "location": "경상북도 온정면 상소태길 5-4",
    "lat": "36.719937",
    "lng": "129.350647",
    "base_date": "2025-02-03"
  },
  {
    "name": "박O국",
    "location": "경상북도 온정면 온정로 1265",
    "lat": "36.718964",
    "lng": "129.347826",
    "base_date": "2025-02-03"
  },
  {
    "name": "박O국",
    "location": "경상북도 온정면 소태로 15",
    "lat": "36.723094",
    "lng": "129.344929",
    "base_date": "2025-02-03"
  },
  {
    "name": "박O국",
    "location": "경상북도 죽변면 죽변2길 47",
    "lat": "37.061181",
    "lng": "129.423454",
    "base_date": "2025-02-03"
  },
  {
    "name": "엘리자원",
    "location": "경상북도 죽변면 죽변2길 71-8",
    "lat": "37.061749",
    "lng": "129.425029",
    "base_date": "2025-02-03"
  },
  {
    "name": "윤O숙",
    "location": "경상북도 죽변면 등대길 92",
    "lat": "37.061749",
    "lng": "129.425029",
    "base_date": "2025-02-03"
  },
  {
    "name": "엘리자원",
    "location": "경상북도 죽변면 등대길 28-2",
    "lat": "37.057211",
    "lng": "129.428831",
    "base_date": "2025-02-03"
  },
  {
    "name": "윤O숙",
    "location": "경상북도 죽변면 등대길 40",
    "lat": "37.05756",
    "lng": "129.428803",
    "base_date": "2025-02-03"
  },
  {
    "name": "엘리자원",
    "location": "경상북도 죽변면 죽변2길 154",
    "lat": "37.062613",
    "lng": "129.424879",
    "base_date": "2025-02-03"
  },
  {
    "name": "박O국",
    "location": "경상북도 죽변면 죽변 2길 174",
    "lat": "37.062402",
    "lng": "129.423836",
    "base_date": "2025-02-03"
  },
  {
    "name": "박O국",
    "location": "경상북도 죽변면 죽변 2길 198",
    "lat": "37.062159",
    "lng": "129.422397",
    "base_date": "2025-02-03"
  },
  {
    "name": "엘리자원",
    "location": "경상북도 죽변면 죽변리 266-2",
    "lat": "37.06354",
    "lng": "129.420501",
    "base_date": "2025-02-03"
  },
  {
    "name": "박O국",
    "location": "경상북도 죽변면 죽변 4길 52",
    "lat": "37.064463",
    "lng": "129.421313",
    "base_date": "2025-02-03"
  },
  {
    "name": "윤O숙",
    "location": "경상북도 죽변면 죽변 4길 58",
    "lat": "37.064804",
    "lng": "129.421909",
    "base_date": "2025-02-03"
  },
  {
    "name": "윤O숙",
    "location": "경상북도 죽변면 죽변 4길 90",
    "lat": "37.064477",
    "lng": "129.423777",
    "base_date": "2025-02-03"
  },
  {
    "name": "박O국",
    "location": "경상북도 죽변면 죽변북로 62",
    "lat": "37.064317",
    "lng": "129.418505",
    "base_date": "2025-02-03"
  },
  {
    "name": "엘리자원",
    "location": "경상북도 죽변면 죽변북로 64-12",
    "lat": "37.065029",
    "lng": "129.418189",
    "base_date": "2025-02-03"
  },
  {
    "name": "박O국",
    "location": "경상북도 죽변면 죽변북로 78-43",
    "lat": "37.065044",
    "lng": "129.416834",
    "base_date": "2025-02-03"
  },
  {
    "name": "엘리자원",
    "location": "경상북도 죽변면 죽변북로 78-43",
    "lat": "37.065044",
    "lng": "129.416834",
    "base_date": "2025-02-03"
  },
  {
    "name": "박O국",
    "location": "경상북도 죽변면 죽변북로 78-46",
    "lat": "37.064935",
    "lng": "129.417556",
    "base_date": "2025-02-03"
  },
  {
    "name": "엘리자원",
    "location": "경상북도 죽변면 죽변북로 78-46",
    "lat": "37.064935",
    "lng": "129.417556",
    "base_date": "2025-02-03"
  },
  {
    "name": "박O국",
    "location": "경상북도 죽변면 후정2길 20-10",
    "lat": "37.065986",
    "lng": "129.416635",
    "base_date": "2025-02-03"
  },
  {
    "name": "엘리자원",
    "location": "경상북도 죽변면 죽변북로 78-65",
    "lat": "37.065413",
    "lng": "129.415596",
    "base_date": "2025-02-03"
  },
  {
    "name": "박O국",
    "location": "경상북도 죽변면 죽변북로 78-65",
    "lat": "37.065413",
    "lng": "129.415596",
    "base_date": "2025-02-03"
  },
  {
    "name": "박O국",
    "location": "경상북도 죽변면 후정2길 30",
    "lat": "37.066841",
    "lng": "129.416072",
    "base_date": "2025-02-03"
  },
  {
    "name": "박O국",
    "location": "경상북도 죽변면 후정2길 2",
    "lat": "37.064667",
    "lng": "129.414675",
    "base_date": "2025-02-03"
  },
  {
    "name": "엘리자원",
    "location": "경상북도 죽변면 후정2길 2",
    "lat": "37.064667",
    "lng": "129.414675",
    "base_date": "2025-02-03"
  },
  {
    "name": "박O국",
    "location": "경상북도 죽변면 죽변북로 132",
    "lat": "37.066381",
    "lng": "129.412167",
    "base_date": "2025-02-03"
  },
  {
    "name": "박O국",
    "location": "경상북도 죽변면 후정3길 14-3",
    "lat": "37.063661",
    "lng": "129.413257",
    "base_date": "2025-02-03"
  },
  {
    "name": "박O국",
    "location": "경상북도 죽변면 죽변북로75",
    "lat": "37.064346",
    "lng": "129.417159",
    "base_date": "2025-02-03"
  },
  {
    "name": "박O국",
    "location": "경상북도 죽변면 골장길 223",
    "lat": "37.033836",
    "lng": "129.414292",
    "base_date": "2025-02-03"
  },
  {
    "name": "엘리자원",
    "location": "경상북도 죽변면 골장길 223",
    "lat": "37.033836",
    "lng": "129.414292",
    "base_date": "2025-02-03"
  },
  {
    "name": "박O국",
    "location": "경상북도 죽변면 봉평길 96",
    "lat": "37.045516",
    "lng": "129.409814",
    "base_date": "2025-02-03"
  },
  {
    "name": "박O국",
    "location": "경상북도 죽변면 죽변중앙로 126",
    "lat": "37.057829",
    "lng": "129.418298",
    "base_date": "2025-02-03"
  },
  {
    "name": "박O국",
    "location": "경상북도 죽변면 죽변항길 37",
    "lat": "37.057837",
    "lng": "129.420518",
    "base_date": "2025-02-03"
  },
  {
    "name": "박O국",
    "location": "경상북도 죽변면 죽변 중앙로 223-1",
    "lat": "37.056812",
    "lng": "129.426903",
    "base_date": "2025-02-03"
  },
  {
    "name": "박O국",
    "location": "경상북도 죽변면 죽변중앙로 186",
    "lat": "37.059319",
    "lng": "129.424538",
    "base_date": "2025-02-03"
  },
  {
    "name": "엘리자원",
    "location": "경상북도 죽변면 죽변1길 57",
    "lat": "37.060977",
    "lng": "129.423091",
    "base_date": "2025-02-03"
  },
  {
    "name": "윤O숙",
    "location": "경상북도 죽변면 죽변1길 57",
    "lat": "37.060977",
    "lng": "129.423091",
    "base_date": "2025-02-03"
  },
  {
    "name": "박O국",
    "location": "경상북도 죽변면 죽변북로 146",
    "lat": "37.067414",
    "lng": "129.41024",
    "base_date": "2025-02-03"
  },
  {
    "name": "엘리자원",
    "location": "경상북도 죽변면 죽변북로 146",
    "lat": "37.067414",
    "lng": "129.41024",
    "base_date": "2025-02-03"
  },
  {
    "name": "윤O숙",
    "location": "경상북도 죽변면 죽변중앙로 221-3",
    "lat": "37.056651",
    "lng": "129.426836",
    "base_date": "2025-02-03"
  },
  {
    "name": "박O국",
    "location": "경상북도 죽변면 봉평리 295-2",
    "lat": "37.033768",
    "lng": "129.414466",
    "base_date": "2025-02-03"
  },
  {
    "name": "박O국",
    "location": "경상북도 죽변면 죽변 7길 6",
    "lat": "37.060996",
    "lng": "129.420422",
    "base_date": "2025-02-03"
  },
  {
    "name": "박O국",
    "location": "경상북도 죽변면 죽변 8길 13",
    "lat": "37.060516",
    "lng": "129.420483",
    "base_date": "2025-02-03"
  },
  {
    "name": "박O국",
    "location": "경상북도 죽변면 죽변 2길 5-38",
    "lat": "37.061477",
    "lng": "129.421099",
    "base_date": "2025-02-03"
  },
  {
    "name": "박O국",
    "location": "경상북도 죽변면 죽변 3길 20",
    "lat": "37.062764",
    "lng": "129.422011",
    "base_date": "2025-02-03"
  },
  {
    "name": "박O국",
    "location": "경상북도 죽변면 죽변6길 36",
    "lat": "37.061928",
    "lng": "129.419018",
    "base_date": "2025-02-03"
  },
  {
    "name": "박O국",
    "location": "경상북도 죽변면 죽변북로 48",
    "lat": "37.063788",
    "lng": "129.42029",
    "base_date": "2025-02-03"
  },
  {
    "name": "엘리자원",
    "location": "경상북도 죽변면 죽변북로 48",
    "lat": "37.063528",
    "lng": "129.420491",
    "base_date": "2025-02-03"
  },
  {
    "name": "엘리자원",
    "location": "경상북도 죽변면 죽변6길 12 ",
    "lat": "37.062393",
    "lng": "129.420028",
    "base_date": "2025-02-03"
  },
  {
    "name": "박O국",
    "location": "경상북도 죽변면 죽변6길 12 ",
    "lat": "37.062393",
    "lng": "129.420028",
    "base_date": "2025-02-03"
  },
  {
    "name": "엘리자원",
    "location": "경상북도 죽변면 죽변5길 22",
    "lat": "37.063089",
    "lng": "129.419306",
    "base_date": "2025-02-03"
  },
  {
    "name": "박O국",
    "location": "경상북도 죽변면 죽변 5길 22",
    "lat": "37.063024",
    "lng": "129.419391",
    "base_date": "2025-02-03"
  },
  {
    "name": "박O국",
    "location": "경상북도 죽변면 죽변 5길 41",
    "lat": "37.062341",
    "lng": "129.417775",
    "base_date": "2025-02-03"
  },
  {
    "name": "박O국",
    "location": "경상북도 죽변면 죽변리 436-8",
    "lat": "37.060269",
    "lng": "129.417284",
    "base_date": "2025-02-03"
  },
  {
    "name": "박O국",
    "location": "경상북도 죽변면 후정리 338-4",
    "lat": "37.054181",
    "lng": "129.414427",
    "base_date": "2025-02-03"
  },
  {
    "name": "박O일",
    "location": "경상북도 후포면 삼율1길 27-8",
    "lat": "36.68969",
    "lng": "129.4283006",
    "base_date": "2025-02-03"
  },
  {
    "name": "박O일",
    "location": "경상북도 후포면 후포삼율로 46-6",
    "lat": "36.68969",
    "lng": "129.4283006",
    "base_date": "2025-02-03"
  },
  {
    "name": "박O일",
    "location": "경상북도 후포면 후포삼율로 40",
    "lat": "36.68969",
    "lng": "129.4283006",
    "base_date": "2025-02-03"
  },
  {
    "name": "박O일",
    "location": "경상북도 후포면 후포삼율로 51",
    "lat": "36.68969",
    "lng": "129.4283006",
    "base_date": "2025-02-03"
  },
  {
    "name": "박O일",
    "location": "경상북도 후포면 정실2길 18",
    "lat": "36.68969",
    "lng": "129.4283006",
    "base_date": "2025-02-03"
  },
  {
    "name": "박O일",
    "location": "경상북도 후포면 삼율리 530-57",
    "lat": "36.68969",
    "lng": "129.4283006",
    "base_date": "2025-02-03"
  },
  {
    "name": "박O일",
    "location": "경상북도 후포면 정실 2길 43",
    "lat": "36.68969",
    "lng": "129.4283006",
    "base_date": "2025-02-03"
  },
  {
    "name": "박O일",
    "location": "경상북도 후포면 후포삼율로 85-12",
    "lat": "36.68969",
    "lng": "129.4283006",
    "base_date": "2025-02-03"
  },
  {
    "name": "박O일",
    "location": "경상북도 후포면 삼율6길 1-18",
    "lat": "36.68969",
    "lng": "129.4283006",
    "base_date": "2025-02-03"
  },
  {
    "name": "박O일",
    "location": "경상북도 후포면 삼율리 402",
    "lat": "36.68969",
    "lng": "129.4283006",
    "base_date": "2025-02-03"
  },
  {
    "name": "박O일",
    "location": "경상북도 후포면 삼율 6길 15",
    "lat": "36.68969",
    "lng": "129.4283006",
    "base_date": "2025-02-03"
  },
  {
    "name": "박O일",
    "location": "경상북도 후포면 삼율6길 16-9",
    "lat": "36.68969",
    "lng": "129.4283006",
    "base_date": "2025-02-03"
  },
  {
    "name": "박O일",
    "location": "경상북도 후포면 삼율리 361",
    "lat": "36.68969",
    "lng": "129.4283006",
    "base_date": "2025-02-03"
  },
  {
    "name": "박O일",
    "location": "경상북도 후포면 삼율5길 17",
    "lat": "36.68969",
    "lng": "129.4283006",
    "base_date": "2025-02-03"
  },
  {
    "name": "박O일",
    "location": "경상북도 후포면 후포삼율로 114",
    "lat": "36.68969",
    "lng": "129.4283006",
    "base_date": "2025-02-03"
  },
  {
    "name": "박O일",
    "location": "경상북도 후포면 후포리 1036-124",
    "lat": "36.6785346",
    "lng": "129.44737",
    "base_date": "2025-02-03"
  },
  {
    "name": "박O일",
    "location": "경상북도 후포면 울진대게로 14-12",
    "lat": "36.68969",
    "lng": "129.4283006",
    "base_date": "2025-02-03"
  },
  {
    "name": "박O일",
    "location": "경상북도 후포면 울진대게로 14-8",
    "lat": "36.68969",
    "lng": "129.4283006",
    "base_date": "2025-02-03"
  },
  {
    "name": "박O일",
    "location": "경상북도 후포면 울진대게로 24-7",
    "lat": "36.68969",
    "lng": "129.4283006",
    "base_date": "2025-02-03"
  },
  {
    "name": "박O일",
    "location": "경상북도 후포면 울진대게로 14-3",
    "lat": "36.68969",
    "lng": "129.4283006",
    "base_date": "2025-02-03"
  },
  {
    "name": "박O일",
    "location": "경상북도 후포면 삼율2길 15-32",
    "lat": "36.68969",
    "lng": "129.4283006",
    "base_date": "2025-02-03"
  },
  {
    "name": "박O일",
    "location": "경상북도 후포면 삼율2길 20-3",
    "lat": "36.68969",
    "lng": "129.4283006",
    "base_date": "2025-02-03"
  },
  {
    "name": "박O일",
    "location": "경상북도 후포면 후포로 59-1",
    "lat": "36.6792131",
    "lng": "129.4484951",
    "base_date": "2025-02-03"
  },
  {
    "name": "박O일",
    "location": "경상북도 후포면 후포로 70",
    "lat": "36.6791276",
    "lng": "129.44912",
    "base_date": "2025-02-03"
  },
  {
    "name": "박O일",
    "location": "경상북도 후포면 후포로 79-1",
    "lat": "36.6798895",
    "lng": "129.4502386",
    "base_date": "2025-02-03"
  },
  {
    "name": "박O일",
    "location": "경상북도 후포면 후포로 92-3",
    "lat": "36.6798766",
    "lng": "129.4515898",
    "base_date": "2025-02-03"
  },
  {
    "name": "박O일",
    "location": "경상북도 후포면 울진후포로 105",
    "lat": "36.680539",
    "lng": "129.4527106",
    "base_date": "2025-02-03"
  },
  {
    "name": "박O일",
    "location": "경상북도 후포면 후포삼율로 67",
    "lat": "36.68969",
    "lng": "129.4283006",
    "base_date": "2025-02-03"
  },
  {
    "name": "박O일",
    "location": "경상북도 후포면 후포 3길 35-1",
    "lat": "36.682761",
    "lng": "129.4537312",
    "base_date": "2025-02-03"
  },
  {
    "name": "박O일",
    "location": "경상북도 후포면 후포리 297-35",
    "lat": "36.6815666",
    "lng": "129.4550076",
    "base_date": "2025-02-03"
  },
  {
    "name": "박O일",
    "location": "경상북도 후포면 후포로 154-4",
    "lat": "36.6825389",
    "lng": "129.4571895",
    "base_date": "2025-02-03"
  },
  {
    "name": "박O일",
    "location": "경상북도 후포면 울진대게로 169-45",
    "lat": "36.6825956",
    "lng": "129.4600161",
    "base_date": "2025-02-03"
  },
  {
    "name": "박O일",
    "location": "경상북도 후포면 후포로 177-1",
    "lat": "36.6832366",
    "lng": "129.4598605",
    "base_date": "2025-02-03"
  },
  {
    "name": "박O일",
    "location": "경상북도 후포면 후포7길 63",
    "lat": "36.6862378",
    "lng": "129.460413",
    "base_date": "2025-02-03"
  },
  {
    "name": "박O일",
    "location": "경상북도 후포면 후포6길 82",
    "lat": "36.6854991",
    "lng": "129.4633784",
    "base_date": "2025-02-03"
  },
  {
    "name": "박O일",
    "location": "경상북도 후포면 후포리 550",
    "lat": "36.6846625",
    "lng": "129.4625669",
    "base_date": "2025-02-03"
  },
  {
    "name": "박O일",
    "location": "경상북도 후포면 울진대게로 359",
    "lat": "36.6890811",
    "lng": "129.4652173",
    "base_date": "2025-02-03"
  },
  {
    "name": "박O일",
    "location": "경상북도 후포면 울진대게로 315-1",
    "lat": "36.6849316",
    "lng": "129.464006",
    "base_date": "2025-02-03"
  },
  {
    "name": "박O일",
    "location": "경상북도 후포면 울진대게로 283",
    "lat": "36.6820641",
    "lng": "129.4640131",
    "base_date": "2025-02-03"
  },
  {
    "name": "박O일",
    "location": "경상북도 후포면 후포로 249",
    "lat": "36.6803303",
    "lng": "129.4642726",
    "base_date": "2025-02-03"
  },
  {
    "name": "박O일",
    "location": "경상북도 후포면 후포로 24",
    "lat": "36.68969",
    "lng": "129.4283006",
    "base_date": "2025-02-03"
  },
  {
    "name": "박O일",
    "location": "경상북도 후포면 후포로 195",
    "lat": "36.6816377",
    "lng": "129.4608547",
    "base_date": "2025-02-03"
  },
  {
    "name": "박O일",
    "location": "경상북도 후포면 삼율5길 31",
    "lat": "36.68969",
    "lng": "129.4283006",
    "base_date": "2025-02-03"
  },
  {
    "name": "박O일",
    "location": "경상북도 후포면 후포로 151",
    "lat": "36.6828785",
    "lng": "129.4568864",
    "base_date": "2025-02-03"
  },
  {
    "name": "박O일",
    "location": "경상북도 후포면 후포로 142-1",
    "lat": "36.6824239",
    "lng": "129.455927",
    "base_date": "2025-02-03"
  },
  {
    "name": "박O일",
    "location": "경상북도 후포면 후포로 126",
    "lat": "36.6817628",
    "lng": "129.4543742",
    "base_date": "2025-02-03"
  },
  {
    "name": "박O일",
    "location": "경상북도 후포면 후포로 35-1",
    "lat": "36.6792046",
    "lng": "129.4456483",
    "base_date": "2025-02-03"
  },
  {
    "name": "박O일",
    "location": "경상북도 후포면 후포로 244",
    "lat": "36.6797239",
    "lng": "129.4643114",
    "base_date": "2025-02-03"
  },
  {
    "name": "박O일",
    "location": "경상북도 후포면 삼율3길 29",
    "lat": "36.68969",
    "lng": "129.4283006",
    "base_date": "2025-02-03"
  },
  {
    "name": "박O일",
    "location": "경상북도 후포면 후포로 11",
    "lat": "36.68969",
    "lng": "129.4283006",
    "base_date": "2025-02-03"
  },
  {
    "name": "박O일",
    "location": "경상북도 후포면 후포로 1",
    "lat": "36.68969",
    "lng": "129.4283006",
    "base_date": "2025-02-03"
  },
  {
    "name": "박O일",
    "location": "경상북도 후포면 삼율4길 22",
    "lat": "36.68969",
    "lng": "129.4283006",
    "base_date": "2025-02-03"
  },
  {
    "name": "박O일",
    "location": "경상북도 후포면 청구천길 29",
    "lat": "36.6825296",
    "lng": "129.4445376",
    "base_date": "2025-02-03"
  },
  {
    "name": "박O일",
    "location": "경상북도 후포면 청구천길 4-8",
    "lat": "36.6816677",
    "lng": "129.4448403",
    "base_date": "2025-02-03"
  },
  {
    "name": "박O일",
    "location": "경상북도 후포면 고동골길 5-12",
    "lat": "36.6815339",
    "lng": "129.445572",
    "base_date": "2025-02-03"
  },
  {
    "name": "박O일",
    "location": "경상북도 후포면 상밤터1길 28",
    "lat": "36.68969",
    "lng": "129.4283006",
    "base_date": "2025-02-03"
  },
  {
    "name": "박O일",
    "location": "경상북도 후포면 상밤터 1길 40",
    "lat": "36.68969",
    "lng": "129.4283006",
    "base_date": "2025-02-03"
  },
  {
    "name": "박O일",
    "location": "경상북도 후포면 상밤터 1길 59-9",
    "lat": "36.68969",
    "lng": "129.4283006",
    "base_date": "2025-02-03"
  },
  {
    "name": "박O일",
    "location": "경상북도 후포면 상밤터 1길 59-22",
    "lat": "36.68969",
    "lng": "129.4283006",
    "base_date": "2025-02-03"
  },
  {
    "name": "박O일",
    "location": "경상북도 후포면 상밤터 1길 59-10 ",
    "lat": "36.68969",
    "lng": "129.4283006",
    "base_date": "2025-02-03"
  },
  {
    "name": "박O일",
    "location": "경상북도 후포면 여심1길 34-12",
    "lat": "36.6632504",
    "lng": "129.4325914",
    "base_date": "2025-02-03"
  },
  {
    "name": "박O일",
    "location": "경상북도 후포면 섶밭1길 34",
    "lat": "36.666786",
    "lng": "129.4330319",
    "base_date": "2025-02-03"
  },
  {
    "name": "박O일",
    "location": "경상북도 후포면 섶밭2길 10",
    "lat": "36.6671444",
    "lng": "129.4326796",
    "base_date": "2025-02-03"
  },
  {
    "name": "박O일",
    "location": "경상북도 후포면 섶밭2길 76",
    "lat": "36.668046",
    "lng": "129.4343003",
    "base_date": "2025-02-03"
  },
  {
    "name": "박O일",
    "location": "경상북도 후포면 후포삼율로 36",
    "lat": "36.6734742",
    "lng": "129.438944",
    "base_date": "2025-02-03"
  },
  {
    "name": "박O일",
    "location": "경상북도 후포면 울진대게로 43",
    "lat": "36.68969",
    "lng": "129.4283006",
    "base_date": "2025-02-03"
  },
  {
    "name": "박O일",
    "location": "경상북도 후포면 후포 6길 119",
    "lat": "36.6870907",
    "lng": "129.4639872",
    "base_date": "2025-02-03"
  },
  {
    "name": "박O일",
    "location": "경상북도 후포면 후포6길 13-4",
    "lat": "36.6834498",
    "lng": "129.4608366",
    "base_date": "2025-02-03"
  },
  {
    "name": "박O일",
    "location": "경상북도 후포면 후포로 120",
    "lat": "36.6814713",
    "lng": "129.4540704",
    "base_date": "2025-02-03"
  },
  {
    "name": "박O일",
    "location": "경상북도 후포면 후포3길 3",
    "lat": "36.6813927",
    "lng": "129.453323",
    "base_date": "2025-02-03"
  },
  {
    "name": "박O일",
    "location": "경상북도 후포면 상밤터 1길 59-25",
    "lat": "36.68969",
    "lng": "129.4283006",
    "base_date": "2025-02-03"
  },
  {
    "name": "박O일",
    "location": "경상북도 후포면 실배길 40",
    "lat": "36.6901454",
    "lng": "129.4455901",
    "base_date": "2025-02-03"
  },
  {
    "name": "박O일",
    "location": "경상북도 후포면 후포로 154-1",
    "lat": "36.6827772",
    "lng": "129.4573936",
    "base_date": "2025-02-03"
  }
]