[
  {
    "name": "의령읍",
    "location": "의령읍 서동리 1052",
    "lat": "35.320453",
    "lng": "128.2603194",
    "base_date": "2026-02-20"
  },
  {
    "name": "의령읍",
    "location": "의령읍 서동리 792",
    "lat": "35.3204036",
    "lng": "128.2533299",
    "base_date": "2026-02-20"
  },
  {
    "name": "의령읍",
    "location": "의령읍 서동리 994",
    "lat": "35.3174793",
    "lng": "128.2577927",
    "base_date": "2026-02-20"
  },
  {
    "name": "의령읍",
    "location": "의령읍 서동리 994-14",
    "lat": "35.3182908",
    "lng": "128.2578923",
    "base_date": "2026-02-20"
  },
  {
    "name": "의령읍",
    "location": "의령읍 서동리 246",
    "lat": "35.3205229",
    "lng": "128.2556497",
    "base_date": "2026-02-20"
  },
  {
    "name": "의령읍",
    "location": "의령읍 서동리 1037",
    "lat": "35.32169",
    "lng": "128.2551609",
    "base_date": "2026-02-20"
  },
  {
    "name": "의령읍",
    "location": "의령읍 서동리 998-3",
    "lat": "35.3182576",
    "lng": "128.2566804",
    "base_date": "2026-02-20"
  },
  {
    "name": "의령읍",
    "location": "의령읍 서동리 594-1",
    "lat": "35.318643",
    "lng": "128.2572177",
    "base_date": "2026-02-20"
  },
  {
    "name": "의령읍",
    "location": "의령읍 서동리 301-12",
    "lat": "35.3187863",
    "lng": "128.2583618",
    "base_date": "2026-02-20"
  },
  {
    "name": "의령읍",
    "location": "의령읍 서동리 498-18",
    "lat": "35.3179235",
    "lng": "128.2586752",
    "base_date": "2026-02-20"
  },
  {
    "name": "의령읍",
    "location": "의령읍 서동리 324-2",
    "lat": "35.3196332",
    "lng": "128.2563076",
    "base_date": "2026-02-20"
  },
  {
    "name": "의령읍",
    "location": "의령읍 동동리 977-8",
    "lat": "35.3205137",
    "lng": "128.267601",
    "base_date": "2026-02-20"
  },
  {
    "name": "의령읍",
    "location": "의령읍 동동리 978-1",
    "lat": "35.3201051",
    "lng": "128.268076",
    "base_date": "2026-02-20"
  },
  {
    "name": "의령읍",
    "location": "의령읍 동동리 992-1",
    "lat": "35.3217626",
    "lng": "128.2679684",
    "base_date": "2026-02-20"
  },
  {
    "name": "의령읍",
    "location": "의령읍 동동리 864",
    "lat": "35.3182368",
    "lng": "128.2671137",
    "base_date": "2026-02-20"
  },
  {
    "name": "의령읍",
    "location": "의령읍 동동리 1511-14",
    "lat": "35.3179716",
    "lng": "128.2663773",
    "base_date": "2026-02-20"
  },
  {
    "name": "의령읍",
    "location": "의령읍 동동리 840-32",
    "lat": "35.3180785",
    "lng": "128.2654915",
    "base_date": "2026-02-20"
  },
  {
    "name": "의령읍",
    "location": "의령읍 동동리 865-1",
    "lat": "35.3190963",
    "lng": "128.2660341",
    "base_date": "2026-02-20"
  },
  {
    "name": "의령읍",
    "location": "의령읍 동동리 932-21",
    "lat": "35.3192167",
    "lng": "128.265415",
    "base_date": "2026-02-20"
  },
  {
    "name": "의령읍",
    "location": "의령읍 동동리 234-7",
    "lat": "35.3195233",
    "lng": "128.2672233",
    "base_date": "2026-02-20"
  },
  {
    "name": "의령읍",
    "location": "의령읍 동동리 978",
    "lat": "35.3192684",
    "lng": "128.266741",
    "base_date": "2026-02-20"
  },
  {
    "name": "의령읍",
    "location": "의령읍 동동리 1012-1",
    "lat": "35.3232066",
    "lng": "128.2673956",
    "base_date": "2026-02-20"
  },
  {
    "name": "의령읍",
    "location": "의령읍 동동리 1013-4",
    "lat": "35.3218582",
    "lng": "128.266215",
    "base_date": "2026-02-20"
  },
  {
    "name": "의령읍",
    "location": "의령읍 동동리 1012-3",
    "lat": "35.3224021",
    "lng": "128.2653514",
    "base_date": "2026-02-20"
  },
  {
    "name": "의령읍",
    "location": "의령읍 동동리 1063-1",
    "lat": "35.3227402",
    "lng": "128.2644292",
    "base_date": "2026-02-20"
  },
  {
    "name": "의령읍",
    "location": "의령읍 동동리 1493-39",
    "lat": "35.3225205",
    "lng": "128.2642074",
    "base_date": "2026-02-20"
  },
  {
    "name": "의령읍",
    "location": "의령읍 하리 619-2",
    "lat": "35.3132709",
    "lng": "128.2538289",
    "base_date": "2026-02-20"
  },
  {
    "name": "의령읍",
    "location": "의령읍 무전리 999-6",
    "lat": "35.3271488",
    "lng": "128.2758104",
    "base_date": "2026-02-20"
  },
  {
    "name": "가례면",
    "location": "가례면 갑을리 243-2",
    "lat": "35.3884546",
    "lng": "128.2196849",
    "base_date": "2026-02-20"
  },
  {
    "name": "화정면",
    "location": "화정면 진의4길 139",
    "lat": "35.322874",
    "lng": "128.1842764",
    "base_date": "2026-02-20"
  },
  {
    "name": "지정면",
    "location": "지정면 두곡리 872-2",
    "lat": "35.399251",
    "lng": "128.4060701",
    "base_date": "2026-02-20"
  },
  {
    "name": "지정면",
    "location": "지정면태부리 843-1",
    "lat": "35.4036711",
    "lng": "128.3614913",
    "base_date": "2026-02-20"
  },
  {
    "name": "부림면",
    "location": "부림면 여배로 106",
    "lat": "35.502576",
    "lng": "128.3409504",
    "base_date": "2026-02-20"
  },
  {
    "name": "정곡면",
    "location": "정곡면 죽전리 1402",
    "lat": "35.3714253",
    "lng": "128.3116421",
    "base_date": "2026-02-20"
  },
  {
    "name": "지정면",
    "location": "지정면 유곡리 410",
    "lat": "35.4318432",
    "lng": "128.3777737",
    "base_date": "2026-02-20"
  },
  {
    "name": "지정면",
    "location": "지정면 성당리 80",
    "lat": "35.3634763",
    "lng": "128.4002251",
    "base_date": "2026-02-20"
  },
  {
    "name": "대의면",
    "location": "대의면 마쌍리 451-5",
    "lat": "35.3723526",
    "lng": "128.1068808",
    "base_date": "2026-02-20"
  },
  {
    "name": "부림면 ",
    "location": "부림면 신반리 780-9",
    "lat": "35.4641511",
    "lng": "128.3174703",
    "base_date": "2026-02-20"
  },
  {
    "name": "부림면 ",
    "location": "부림면 신반리 760-18",
    "lat": "35.4627478",
    "lng": "128.317242",
    "base_date": "2026-02-20"
  },
  {
    "name": "부림면 ",
    "location": "부림면 신반리 105-3",
    "lat": "35.4627706",
    "lng": "128.3211298",
    "base_date": "2026-02-20"
  },
  {
    "name": "부림면 ",
    "location": "부림면 신반리 148-3",
    "lat": "35.4637363",
    "lng": "128.3198841",
    "base_date": "2026-02-20"
  },
  {
    "name": "부림면 ",
    "location": "부림면 신반리 161-133",
    "lat": "35.464201",
    "lng": "128.3226672",
    "base_date": "2026-02-20"
  },
  {
    "name": "부림면 ",
    "location": "부림면 신반리 1067",
    "lat": "35.470194",
    "lng": "128.3232958",
    "base_date": "2026-02-20"
  },
  {
    "name": "부림면 ",
    "location": "부림면 신반리 545-29",
    "lat": "35.4675002",
    "lng": "128.3237699",
    "base_date": "2026-02-20"
  },
  {
    "name": "부림면 ",
    "location": "부림면 신반리 778",
    "lat": "35.466767",
    "lng": "128.3232433",
    "base_date": "2026-02-20"
  },
  {
    "name": "부림면 ",
    "location": "부림면 신반리 565-1",
    "lat": "35.4689274",
    "lng": "128.3250684",
    "base_date": "2026-02-20"
  },
  {
    "name": "부림면 ",
    "location": "부림면 신반리782",
    "lat": "35.4649839",
    "lng": "128.3262773",
    "base_date": "2026-02-20"
  },
  {
    "name": "부림면 ",
    "location": "부림면 신반리 398",
    "lat": "35.466229",
    "lng": "128.3257533",
    "base_date": "2026-02-20"
  },
  {
    "name": "부림면 ",
    "location": "부림면 손오리 564-5",
    "lat": "35.4640912",
    "lng": "128.3564752",
    "base_date": "2026-02-20"
  },
  {
    "name": "부림면 ",
    "location": "부림면 단원리 650-4",
    "lat": "35.4577171",
    "lng": "128.3404916",
    "base_date": "2026-02-20"
  },
  {
    "name": "부림면 ",
    "location": "부림면 단원리 913-7",
    "lat": "35.4658895",
    "lng": "128.3436089",
    "base_date": "2026-02-20"
  },
  {
    "name": "부림면 ",
    "location": "부림면 단원리 22-4",
    "lat": "35.4670633",
    "lng": "128.3534624",
    "base_date": "2026-02-20"
  },
  {
    "name": "부림면 ",
    "location": "부림면 여배리 392-1",
    "lat": "35.502576",
    "lng": "128.3409504",
    "base_date": "2026-02-20"
  },
  {
    "name": "부림면 ",
    "location": "부림면 여배리 694-8",
    "lat": "35.5037762",
    "lng": "128.3302773",
    "base_date": "2026-02-20"
  },
  {
    "name": "부림면 ",
    "location": "부림면 익구리 186-8",
    "lat": "35.4931188",
    "lng": "128.3318455",
    "base_date": "2026-02-20"
  },
  {
    "name": "부림면 ",
    "location": "부림면 감암리 651-1",
    "lat": "35.4808568",
    "lng": "128.3374996",
    "base_date": "2026-02-20"
  },
  {
    "name": "부림면 ",
    "location": "부림면 감암리 941-2",
    "lat": "35.4708449",
    "lng": "128.3247474",
    "base_date": "2026-02-20"
  },
  {
    "name": "부림면 ",
    "location": "부림면 감암리 1052",
    "lat": "35.4711817",
    "lng": "128.3235075",
    "base_date": "2026-02-20"
  }
]