[
  {
    "name": "g앤g 원룸 앞",
    "location": "경상남도 거창군 거창읍 소만1길 17",
    "lat": "35.69290774",
    "lng": "127.9209379",
    "base_date": "2025-02-01"
  },
  {
    "name": "강변 사랑채 앞",
    "location": "경상남도 거창군 거창읍 강변로9길 10",
    "lat": "35.68716269",
    "lng": "127.9186961",
    "base_date": "2025-02-01"
  },
  {
    "name": "강촌추어탕 앞",
    "location": "경상남도 거창군 거창읍 창남1길 73-1",
    "lat": "35.68358187",
    "lng": "127.9145165",
    "base_date": "2025-02-01"
  },
  {
    "name": "개봉마을 회관 앞",
    "location": "경상남도 거창군 거창읍 거열로 232-1",
    "lat": "35.69267616",
    "lng": "127.9182441",
    "base_date": "2025-02-01"
  },
  {
    "name": "개봉식당 앞 ",
    "location": "경상남도 거창군 거창읍 대동리 649-2",
    "lat": "35.69291885",
    "lng": "127.917525",
    "base_date": "2025-02-01"
  },
  {
    "name": "개화경로당 앞 ",
    "location": "경상남도 거창군 거창읍 개화1길 31",
    "lat": "35.6983398",
    "lng": "127.905567",
    "base_date": "2025-02-01"
  },
  {
    "name": "거창공예협회 앞",
    "location": "경상남도 거창군 거창읍 죽전1길 37",
    "lat": "35.69094995",
    "lng": "127.9087033",
    "base_date": "2025-02-01"
  },
  {
    "name": "거창 영락교회 앞",
    "location": "경상남도 거창군 거창읍 강남로1길 86",
    "lat": "35.68201427",
    "lng": "127.9054881",
    "base_date": "2025-02-01"
  },
  {
    "name": "거창장애인 자립지원센터 앞",
    "location": "경상남도 거창군 거창읍 강남로4길 16",
    "lat": "35.6826301",
    "lng": "127.9103504",
    "base_date": "2025-02-01"
  },
  {
    "name": "거창제일교회 앞",
    "location": "경상남도 거창군 거창읍 상동7길 61",
    "lat": "35.68778001",
    "lng": "127.9078303",
    "base_date": "2025-02-01"
  },
  {
    "name": "거창주유소 뒤",
    "location": "경상남도 거창군 거창읍 죽전길 67",
    "lat": "35.69011991",
    "lng": "127.9100497",
    "base_date": "2025-02-01"
  },
  {
    "name": "공수들 갈비 앞",
    "location": "경상남도 거창군 거창읍 상동7길 46",
    "lat": "35.68739662",
    "lng": "127.9066347",
    "base_date": "2025-02-01"
  },
  {
    "name": "광안리 앞",
    "location": "경상남도 거창군 거창읍 상림리 850",
    "lat": "35.68623239",
    "lng": "127.9019618",
    "base_date": "2025-02-01"
  },
  {
    "name": "그린아파트 C동 앞",
    "location": "경상남도 거창군 거창읍 개봉길 54",
    "lat": "35.69325027",
    "lng": "127.9154372",
    "base_date": "2025-02-01"
  },
  {
    "name": "금강진열대 앞",
    "location": "경상남도 거창군 거창읍 강변로 155",
    "lat": "35.68543687",
    "lng": "127.9139038",
    "base_date": "2025-02-01"
  },
  {
    "name": "늘푸른 빨래방 앞",
    "location": "경상남도 거창군 거창읍 상동길 26",
    "lat": "35.68612394",
    "lng": "127.9050103",
    "base_date": "2025-02-01"
  },
  {
    "name": "다인음악학원 앞",
    "location": "경상남도 거창군 거창읍 중앙리 51-10",
    "lat": "35.68906043",
    "lng": "127.914018",
    "base_date": "2025-02-01"
  },
  {
    "name": "대동교회 앞",
    "location": "경상남도 거창군 거창읍 거열로4길 160",
    "lat": "35.69545691",
    "lng": "127.9065963",
    "base_date": "2025-02-01"
  },
  {
    "name": "대동우체국 앞",
    "location": "경상남도 거창군 거창읍 중앙로2길 13",
    "lat": "35.68875395",
    "lng": "127.9184207",
    "base_date": "2025-02-01"
  },
  {
    "name": "대동축산 앞",
    "location": "경상남도 거창군 거창읍 거창대로3길 62",
    "lat": "35.68909491",
    "lng": "127.9188191",
    "base_date": "2025-02-01"
  },
  {
    "name": "대평경로당 앞",
    "location": "경상남도 거창군 거창읍 대평7길 13",
    "lat": "35.68335124",
    "lng": "127.9183179",
    "base_date": "2025-02-01"
  },
  {
    "name": "대평리 늘푸른 빌라 앞",
    "location": "경상남도 거창군 거창읍 대평7길 54",
    "lat": "35.68359021",
    "lng": "127.9207651",
    "base_date": "2025-02-01"
  },
  {
    "name": "대평 세륭 아파트 앞",
    "location": "경상남도 거창군 거창읍 대평리 1054-11",
    "lat": "35.68424168",
    "lng": "127.9195439",
    "base_date": "2025-02-01"
  },
  {
    "name": "대현마트 앞",
    "location": "경상남도 거창군 거창읍 거열로1길 81",
    "lat": "35.69337995",
    "lng": "127.9127202",
    "base_date": "2025-02-01"
  },
  {
    "name": "동그라미센터 앞",
    "location": "경상남도 거창군 거창읍 창남5길 3-33",
    "lat": "35.68259349",
    "lng": "127.9138153",
    "base_date": "2025-02-01"
  },
  {
    "name": "드림빌리지 4차 앞",
    "location": "경상남도 거창군 거창읍 교촌길 100-57",
    "lat": "35.69269503",
    "lng": "127.9054012",
    "base_date": "2025-02-01"
  },
  {
    "name": "라뽐므 커피숍 앞",
    "location": "경상남도 거창군 거창읍 중앙리 328-8",
    "lat": "35.68827423",
    "lng": "127.9108965",
    "base_date": "2025-02-01"
  },
  {
    "name": "마왕족발 앞",
    "location": "경상남도 거창군 거창읍 상림리 856",
    "lat": "35.68701319",
    "lng": "127.9030597",
    "base_date": "2025-02-01"
  },
  {
    "name": "만우건설 앞",
    "location": "경상남도 거창군 거창읍 거열로3길 49",
    "lat": "35.69355187",
    "lng": "127.9158222",
    "base_date": "2025-02-01"
  },
  {
    "name": "매일반점 앞",
    "location": "경상남도 거창군 거창읍 대평4길 19",
    "lat": "35.68516401",
    "lng": "127.9189314",
    "base_date": "2025-02-01"
  },
  {
    "name": "매일우유 앞",
    "location": "경상남도 거창군 거창읍 거열로2길 18",
    "lat": "35.6917201",
    "lng": "127.9152759",
    "base_date": "2025-02-01"
  },
  {
    "name": "무지개바동 앞",
    "location": "경상남도 거창군 거창읍 중앙리 2-19",
    "lat": "35.69322703",
    "lng": "127.9129577",
    "base_date": "2025-02-01"
  },
  {
    "name": "문화빌라 A동 앞",
    "location": "경상남도 거창군 거창읍 개봉길 58",
    "lat": "35.69343584",
    "lng": "127.9145705",
    "base_date": "2025-02-01"
  },
  {
    "name": "방주아트빌 앞",
    "location": "경상남도 거창군 거창읍 거열로4길 122",
    "lat": "35.69404568",
    "lng": "127.9074425",
    "base_date": "2025-02-01"
  },
  {
    "name": "백신빌라 앞",
    "location": "경상남도 거창군 거창읍 상림리 528-1",
    "lat": "35.6850539",
    "lng": "127.8999168",
    "base_date": "2025-02-01"
  },
  {
    "name": "베어스타운 앞",
    "location": "경상남도 거창군 거창읍 동동6길 100",
    "lat": "35.69037907",
    "lng": "127.9247773",
    "base_date": "2025-02-01"
  },
  {
    "name": "벽돌집 앞",
    "location": "경상남도 거창군 거창읍 상림리 808",
    "lat": "35.68824678",
    "lng": "127.9060504",
    "base_date": "2025-02-01"
  },
  {
    "name": "복지회관 재활용 센터 앞",
    "location": "경상남도 거창군 거창읍 중앙리 327-8",
    "lat": "35.68872504",
    "lng": "127.9106004",
    "base_date": "2025-02-01"
  },
  {
    "name": "본가추어탕 앞",
    "location": "경상남도 거창군 거창읍 대동리 89-6",
    "lat": "35.68795722",
    "lng": "127.920752",
    "base_date": "2025-02-01"
  },
  {
    "name": "빌더원리쎄아파트 앞",
    "location": "경상남도 거창군 거창읍 동동5길 60-16",
    "lat": "35.69151238",
    "lng": "127.9226992",
    "base_date": "2025-02-01"
  },
  {
    "name": "삼거리식당",
    "location": "경상남도 거창군 거창읍 거열로1길 11",
    "lat": "35.69128691",
    "lng": "127.9142633",
    "base_date": "2025-02-01"
  },
  {
    "name": "상동아파트 다동",
    "location": "경상남도 거창군 거창읍 죽전길 24-17",
    "lat": "35.68992534",
    "lng": "127.9081157",
    "base_date": "2025-02-01"
  },
  {
    "name": "상동하나로마트 뒤",
    "location": "경상남도 거창군 거창읍 거열로 117",
    "lat": "35.68908752",
    "lng": "127.9067677",
    "base_date": "2025-02-01"
  },
  {
    "name": "상림빌라앞",
    "location": "경상남도 거창군 거창읍 강변로 19",
    "lat": "35.68352625",
    "lng": "127.8993494",
    "base_date": "2025-02-01"
  },
  {
    "name": "샛별주택 앞",
    "location": "경상남도 거창군 거창읍 죽전2길 34-3",
    "lat": "35.69115915",
    "lng": "127.9102384",
    "base_date": "2025-02-01"
  },
  {
    "name": "새싹어린이집 앞",
    "location": "경상남도 거창군 거창읍 거열로6길 45",
    "lat": "35.68994489",
    "lng": "127.9050774",
    "base_date": "2025-02-01"
  },
  {
    "name": "샛별중학교 정문 앞",
    "location": "경상남도 거창군 거창읍 죽전5길 62",
    "lat": "35.6929483",
    "lng": "127.9119766",
    "base_date": "2025-02-01"
  },
  {
    "name": "서울유리 앞",
    "location": "경상남도 거창군 거창읍 죽전길 24-5",
    "lat": "35.69011922",
    "lng": "127.908328",
    "base_date": "2025-02-01"
  },
  {
    "name": "성균관 하우스 앞",
    "location": "경상남도 거창군 거창읍 죽전2길 48",
    "lat": "35.69154886",
    "lng": "127.9102846",
    "base_date": "2025-02-01"
  },
  {
    "name": "솔보 떡방앗간 앞",
    "location": "경상남도 거창군 거창읍 송정리 220-5",
    "lat": "35.68263539",
    "lng": "127.906341",
    "base_date": "2025-02-01"
  },
  {
    "name": "솔잎가든 앞",
    "location": "경상남도 거창군 거창읍 강변로 99",
    "lat": "35.68444598",
    "lng": "127.9080286",
    "base_date": "2025-02-01"
  },
  {
    "name": "송정 문화빌라 앞",
    "location": "경상남도 거창군 거창읍 강남로1길 134",
    "lat": "35.68249244",
    "lng": "127.9080164",
    "base_date": "2025-02-01"
  },
  {
    "name": "신화문구 앞",
    "location": "경상남도 거창군 거창읍 김천리 37-1",
    "lat": "35.68275025",
    "lng": "127.9147002",
    "base_date": "2025-02-01"
  },
  {
    "name": "아름다운교회 앞",
    "location": "경상남도 거창군 거창읍 개화1길 31",
    "lat": "35.6983398",
    "lng": "127.905567",
    "base_date": "2025-02-01"
  },
  {
    "name": "아림로 3길 앞",
    "location": "경상남도 거창군 거창읍 중앙리 324-14",
    "lat": "35.6895572",
    "lng": "127.912233",
    "base_date": "2025-02-01"
  },
  {
    "name": "아림음향 앞",
    "location": "경상남도 거창군 거창읍 강변로3길 21",
    "lat": "35.68442218",
    "lng": "127.9020832",
    "base_date": "2025-02-01"
  },
  {
    "name": "아진파크 앞",
    "location": "경상남도 거창군 거창읍 동동5길 86",
    "lat": "35.69202644",
    "lng": "127.9245566",
    "base_date": "2025-02-01"
  },
  {
    "name": "아트비문구 앞",
    "location": "경상남도 거창군 거창읍 아림로 48",
    "lat": "35.6875316",
    "lng": "127.9100892",
    "base_date": "2025-02-01"
  },
  {
    "name": "오 수학학원 앞",
    "location": "경상남도 거창군 거창읍 거열로5길 8-26",
    "lat": "35.68994682",
    "lng": "127.9065094",
    "base_date": "2025-02-01"
  },
  {
    "name": "옹가네 반점 앞",
    "location": "경상남도 거창군 거창읍 죽전7길 13",
    "lat": "35.69310247",
    "lng": "127.9134433",
    "base_date": "2025-02-01"
  },
  {
    "name": "우정색스폰 클럽 앞",
    "location": "경상남도 거창군 거창읍 거열로1길 11",
    "lat": "35.69128691",
    "lng": "127.9142633",
    "base_date": "2025-02-01"
  },
  {
    "name": "유빌리비 1차앞",
    "location": "경상남도 거창군 거창읍 상동7길 83-13",
    "lat": "35.68835517",
    "lng": "127.9086082",
    "base_date": "2025-02-01"
  },
  {
    "name": "윤성학원 뒤",
    "location": "경상남도 거창군 거창읍 상림리 843",
    "lat": "35.68787689",
    "lng": "127.9033133",
    "base_date": "2025-02-01"
  },
  {
    "name": "이지할인마트 앞",
    "location": "경상남도 거창군 거창읍 거창대로3길 50",
    "lat": "35.68881756",
    "lng": "127.9180453",
    "base_date": "2025-02-01"
  },
  {
    "name": "정우하이츠 빌라 앞",
    "location": "경상남도 거창군 거창읍 김천리 264-3",
    "lat": "35.67656528",
    "lng": "127.9104232",
    "base_date": "2025-02-01"
  },
  {
    "name": "제일 종합 장식 앞",
    "location": "경상남도 거창군 거창읍 아림로2길 55-1",
    "lat": "35.68871649",
    "lng": "127.9126574",
    "base_date": "2025-02-01"
  },
  {
    "name": "조선갈비탕 앞",
    "location": "경상남도 거창군 거창읍 상림리 852",
    "lat": "35.68665959",
    "lng": "127.9021393",
    "base_date": "2025-02-01"
  },
  {
    "name": "조쉐프 쌀국수 앞",
    "location": "경상남도 거창군 거창읍 상동길 38",
    "lat": "35.68708014",
    "lng": "127.9046894",
    "base_date": "2025-02-01"
  },
  {
    "name": "주야로 식당 옆",
    "location": "경상남도 거창군 거창읍 수남로 2214-6",
    "lat": "35.67659273",
    "lng": "127.9117346",
    "base_date": "2025-02-01"
  },
  {
    "name": "중앙 표구사 앞",
    "location": "경상남도 거창군 거창읍 중앙로 74",
    "lat": "35.68515281",
    "lng": "127.9067515",
    "base_date": "2025-02-01"
  },
  {
    "name": "지코바치킨 앞",
    "location": "경상남도 거창군 거창읍 거열로1길 40",
    "lat": "35.69261531",
    "lng": "127.9141485",
    "base_date": "2025-02-01"
  },
  {
    "name": "착한명태 앞",
    "location": "경상남도 거창군 거창읍 대동리 723-12",
    "lat": "35.68962214",
    "lng": "127.9157437",
    "base_date": "2025-02-01"
  },
  {
    "name": "참좋은 아파트 앞",
    "location": "경상남도 거창군 거창읍 거창대로 29",
    "lat": "35.68425419",
    "lng": "127.9170294",
    "base_date": "2025-02-01"
  },
  {
    "name": "창남교회 앞",
    "location": "경상남도 거창군 거창읍 창남2길 18",
    "lat": "35.68229633",
    "lng": "127.9172072",
    "base_date": "2025-02-01"
  },
  {
    "name": "천생연분 미용실 앞",
    "location": "경상남도 거창군 거창읍 공수들8길 84",
    "lat": "35.68563195",
    "lng": "127.9048779",
    "base_date": "2025-02-01"
  },
  {
    "name": "천태종 앞",
    "location": "경상남도 거창군 거창읍 대평7길 37",
    "lat": "35.68371605",
    "lng": "127.9196887",
    "base_date": "2025-02-01"
  },
  {
    "name": "천호식육식당 옆",
    "location": "경상남도 거창군 거창읍 대동리 964-62",
    "lat": "35.68915519",
    "lng": "127.9166398",
    "base_date": "2025-02-01"
  },
  {
    "name": "충효탑 앞",
    "location": "경상남도 거창군 거창읍 상림리 781",
    "lat": "35.69073619",
    "lng": "127.9058258",
    "base_date": "2025-02-01"
  },
  {
    "name": "콜스팀 세차 앞",
    "location": "경상남도 거창군 거창읍 대동리 85-11",
    "lat": "35.68768999",
    "lng": "127.9193669",
    "base_date": "2025-02-01"
  },
  {
    "name": "탑마트 앞",
    "location": "경상남도 거창군 거창읍 동동6길 74",
    "lat": "35.69048358",
    "lng": "127.9234199",
    "base_date": "2025-02-01"
  },
  {
    "name": "한국야쿠르트 앞",
    "location": "경상남도 거창군 거창읍 하동5길 22-2",
    "lat": "35.68785327",
    "lng": "127.9129434",
    "base_date": "2025-02-01"
  },
  {
    "name": "한흥스포렉스 주차장 앞",
    "location": "경상남도 거창군 거창읍 창동로 119",
    "lat": "35.687876",
    "lng": "127.9203502",
    "base_date": "2025-02-01"
  },
  {
    "name": "행복마을 앞",
    "location": "경상남도 거창군 거창읍 거열로3길 13",
    "lat": "35.69211688",
    "lng": "127.9162882",
    "base_date": "2025-02-01"
  },
  {
    "name": "혜성순대 앞",
    "location": "경상남도 거창군 거창읍 중앙로 89",
    "lat": "35.68569829",
    "lng": "127.9085389",
    "base_date": "2025-02-01"
  },
  {
    "name": "호식이두마리치킨앞",
    "location": "경상남도 거창군 거창읍 강양5길 45",
    "lat": "35.68934069",
    "lng": "127.9177078",
    "base_date": "2025-02-01"
  },
  {
    "name": "호야식당 앞",
    "location": "경상남도 거창군 거창읍 상동2길 14",
    "lat": "35.68660652",
    "lng": "127.9083179",
    "base_date": "2025-02-01"
  },
  {
    "name": "화목 아파트 앞",
    "location": "경상남도 거창군 거창읍 거열로2길 34-9",
    "lat": "35.69275529",
    "lng": "127.9149172",
    "base_date": "2025-02-01"
  },
  {
    "name": "화성주유소 앞",
    "location": "경상남도 거창군 거창읍 중앙로1길 94",
    "lat": "35.69006104",
    "lng": "127.9168934",
    "base_date": "2025-02-01"
  },
  {
    "name": "g앤g 하이든 앞",
    "location": "경상남도 거창군 거창읍 거열로1길 79",
    "lat": "35.69311755",
    "lng": "127.9127854",
    "base_date": "2025-02-01"
  },
  {
    "name": "가나인력 앞",
    "location": "경상남도 거창군 거창읍 거함대로4길 89-9",
    "lat": "35.68273752",
    "lng": "127.9126132",
    "base_date": "2025-02-01"
  },
  {
    "name": "강남로 1길 41 앞",
    "location": "경상남도 거창군 거창읍 강남로1길 41",
    "lat": "35.68230203",
    "lng": "127.9029701",
    "base_date": "2025-02-01"
  },
  {
    "name": "강변로 4길 21 앞",
    "location": "경상남도 거창군 거창읍 강변로4길 21",
    "lat": "35.6842098",
    "lng": "127.9035446",
    "base_date": "2025-02-01"
  },
  {
    "name": "강변로 89 앞",
    "location": "경상남도 거창군 거창읍 강변로 89",
    "lat": "35.68415413",
    "lng": "127.9068007",
    "base_date": "2025-02-01"
  },
  {
    "name": "강변사랑채 앞",
    "location": "경상남도 거창군 거창읍 강변로9길 10",
    "lat": "35.68716269",
    "lng": "127.9186961",
    "base_date": "2025-02-01"
  },
  {
    "name": "강양 3길 19 앞",
    "location": "경상남도 거창군 거창읍 강양3길 19",
    "lat": "35.69038763",
    "lng": "127.9158189",
    "base_date": "2025-02-01"
  },
  {
    "name": "개봉길 74 앞",
    "location": "경상남도 거창군 거창읍 개봉길 74",
    "lat": "35.69306799",
    "lng": "127.9141746",
    "base_date": "2025-02-01"
  },
  {
    "name": "거열로 2길 34-6",
    "location": "경상남도 거창군 거창읍 거열로2길 34-6",
    "lat": "35.69246607",
    "lng": "127.9154522",
    "base_date": "2025-02-01"
  },
  {
    "name": "거열로 5길 49 앞",
    "location": "경상남도 거창군 거창읍 거열로5길 49",
    "lat": "35.69011066",
    "lng": "127.9046411",
    "base_date": "2025-02-01"
  },
  {
    "name": "거창농협자재센터 앞",
    "location": "경상남도 거창군 거창읍 중앙로 188",
    "lat": "35.68830529",
    "lng": "127.918541",
    "base_date": "2025-02-01"
  },
  {
    "name": "거창대로 21 앞",
    "location": "경상남도 거창군 거창읍 거창대로 21",
    "lat": "35.68370719",
    "lng": "127.9173654",
    "base_date": "2025-02-01"
  },
  {
    "name": "고기마을 앞",
    "location": "경상남도 거창군 거창읍 중앙로 43",
    "lat": "35.68487123",
    "lng": "127.9035314",
    "base_date": "2025-02-01"
  },
  {
    "name": "고려설비 앞",
    "location": "경상남도 거창군 거창읍 거열로 201",
    "lat": "35.69111083",
    "lng": "127.9154578",
    "base_date": "2025-02-01"
  },
  {
    "name": "고향생막창 앞",
    "location": "경상남도 거창군 거창읍 공수들3길 23",
    "lat": "35.68700245",
    "lng": "127.9019744",
    "base_date": "2025-02-01"
  },
  {
    "name": "공수들 1길 1앞",
    "location": "경상남도 거창군 거창읍 공수들1길 1",
    "lat": "35.68467033",
    "lng": "127.9002608",
    "base_date": "2025-02-01"
  },
  {
    "name": "공수들 8길 54 앞",
    "location": "경상남도 거창군 거창읍 공수들8길 54",
    "lat": "35.68537668",
    "lng": "127.9034556",
    "base_date": "2025-02-01"
  },
  {
    "name": "기분좋은 날 식당",
    "location": "경상남도 거창군 거창읍 강변로 239",
    "lat": "35.68853708",
    "lng": "127.9224083",
    "base_date": "2025-02-01"
  },
  {
    "name": "김정숙 미용실 앞",
    "location": "경상남도 거창군 거창읍 수남로 2259",
    "lat": "35.68066215",
    "lng": "127.9119934",
    "base_date": "2025-02-01"
  },
  {
    "name": "김천 1길 52 앞",
    "location": "경상남도 거창군 거창읍 김천1길 52",
    "lat": "35.67751274",
    "lng": "127.9090748",
    "base_date": "2025-02-01"
  },
  {
    "name": "김천2길 34 앞",
    "location": "경상남도 거창군 거창읍 김천2길 34",
    "lat": "35.67680857",
    "lng": "127.909472",
    "base_date": "2025-02-01"
  },
  {
    "name": "김천리 마을회관 앞",
    "location": "경상남도 거창군 거창읍 거함대로1길 44",
    "lat": "35.68181404",
    "lng": "127.911992",
    "base_date": "2025-02-01"
  },
  {
    "name": "까치문구 앞",
    "location": "경상남도 거창군 거창읍 죽전4길 25",
    "lat": "35.69137131",
    "lng": "127.9112503",
    "base_date": "2025-02-01"
  },
  {
    "name": "꿈에그린 원룸 앞",
    "location": "경상남도 거창군 거창읍 소만4길 31-9",
    "lat": "35.69370479",
    "lng": "127.9236796",
    "base_date": "2025-02-01"
  },
  {
    "name": "대동주유소 앞",
    "location": "경상남도 거창군 거창읍 거열로 229",
    "lat": "35.69276892",
    "lng": "127.9177797",
    "base_date": "2025-02-01"
  },
  {
    "name": "대명식당 앞",
    "location": "경상남도 거창군 거창읍 아림로2길 85",
    "lat": "35.68912435",
    "lng": "127.9142899",
    "base_date": "2025-02-01"
  },
  {
    "name": "대성건재 철물 앞",
    "location": "경상남도 거창군 거창읍 강변로9길 102",
    "lat": "35.69125746",
    "lng": "127.9169022",
    "base_date": "2025-02-01"
  },
  {
    "name": "동동7길 18-5 앞",
    "location": "경상남도 거창군 거창읍 동동7길 18-5",
    "lat": "35.68824459",
    "lng": "127.9216724",
    "base_date": "2025-02-01"
  },
  {
    "name": "동원그린빌 3차 앞",
    "location": "경상남도 거창군 거창읍 강양4길 16",
    "lat": "35.68991512",
    "lng": "127.9182785",
    "base_date": "2025-02-01"
  },
  {
    "name": "두올장식 앞",
    "location": "경상남도 거창군 거창읍 거열로 154-6",
    "lat": "35.68942805",
    "lng": "127.910643",
    "base_date": "2025-02-01"
  },
  {
    "name": "들꽃마을 앞",
    "location": "경상남도 거창군 거창읍 거함대로3길 23",
    "lat": "35.67937054",
    "lng": "127.9107121",
    "base_date": "2025-02-01"
  },
  {
    "name": "라온빌 앞",
    "location": "경상남도 거창군 거창읍 송정9길 49",
    "lat": "35.68134262",
    "lng": "127.9090343",
    "base_date": "2025-02-01"
  },
  {
    "name": "로제하우스 앞",
    "location": "경상남도 거창군 거창읍 송정5길 25",
    "lat": "35.68122383",
    "lng": "127.9033354",
    "base_date": "2025-02-01"
  },
  {
    "name": "만물식자재 앞",
    "location": "경상남도 거창군 거창읍 수남로 2283",
    "lat": "35.68267583",
    "lng": "127.9119533",
    "base_date": "2025-02-01"
  },
  {
    "name": "명림빌 앞",
    "location": "경상남도 거창군 거창읍 소만1길 29",
    "lat": "35.69334291",
    "lng": "127.9209087",
    "base_date": "2025-02-01"
  },
  {
    "name": "박송이 미용실 앞",
    "location": "경상남도 거창군 거창읍 거함대로4길 71",
    "lat": "35.68308334",
    "lng": "127.9134313",
    "base_date": "2025-02-01"
  },
  {
    "name": "배터진 돈까스 앞",
    "location": "경상남도 거창군 거창읍 아림로3길 46",
    "lat": "35.68925192",
    "lng": "127.9119202",
    "base_date": "2025-02-01"
  },
  {
    "name": "법무사 안영길사무소 앞",
    "location": "경상남도 거창군 거창읍 죽전길 33",
    "lat": "35.69040702",
    "lng": "127.9082043",
    "base_date": "2025-02-01"
  },
  {
    "name": "봉우리 식당 앞",
    "location": "경상남도 거창군 거창읍 강남로 174",
    "lat": "35.68452318",
    "lng": "127.9161343",
    "base_date": "2025-02-01"
  },
  {
    "name": "삼정지하수 개발 앞",
    "location": "경상남도 거창군 거창읍 개봉길 16-6",
    "lat": "35.69327335",
    "lng": "127.9173891",
    "base_date": "2025-02-01"
  },
  {
    "name": "삼화하이빌 앞",
    "location": "경상남도 거창군 거창읍 소만2길 19",
    "lat": "35.69305994",
    "lng": "127.9221294",
    "base_date": "2025-02-01"
  },
  {
    "name": "상동 4길 4앞",
    "location": "경상남도 거창군 거창읍 상동4길 4",
    "lat": "35.68719074",
    "lng": "127.9094232",
    "base_date": "2025-02-01"
  },
  {
    "name": "상동 7길 77-6앞",
    "location": "경상남도 거창군 거창읍 상동7길 77-6",
    "lat": "35.6880805",
    "lng": "127.9086523",
    "base_date": "2025-02-01"
  },
  {
    "name": "상동 9길 43 앞",
    "location": "경상남도 거창군 거창읍 상동9길 43",
    "lat": "35.6849284",
    "lng": "127.907636",
    "base_date": "2025-02-01"
  },
  {
    "name": "상동 마을회관 앞",
    "location": "경상남도 거창군 거창읍 상동9길 14",
    "lat": "35.6845756",
    "lng": "127.9061368",
    "base_date": "2025-02-01"
  },
  {
    "name": "터미널 상아맨션 앞",
    "location": "경상남도 거창군 거창읍 강남로 254-17",
    "lat": "35.68692644",
    "lng": "127.9247731",
    "base_date": "2025-02-01"
  },
  {
    "name": "서민돼지갈비 앞",
    "location": "경상남도 거창군 거창읍 대평5길 72",
    "lat": "35.6850244",
    "lng": "127.9212199",
    "base_date": "2025-02-01"
  },
  {
    "name": "세신장여관 앞",
    "location": "경상남도 거창군 거창읍 강변로 139-1",
    "lat": "35.68490802",
    "lng": "127.9122884",
    "base_date": "2025-02-01"
  },
  {
    "name": "세종종합장식 앞",
    "location": "경상남도 거창군 거창읍 거열로6길 68-3",
    "lat": "35.69051617",
    "lng": "127.9063966",
    "base_date": "2025-02-01"
  },
  {
    "name": "송정 3길 34 앞",
    "location": "경상남도 거창군 거창읍 송정3길 34",
    "lat": "35.68135206",
    "lng": "127.9028079",
    "base_date": "2025-02-01"
  },
  {
    "name": "송정 7길 66 앞",
    "location": "경상남도 거창군 거창읍 송정7길 66",
    "lat": "35.68057605",
    "lng": "127.9094712",
    "base_date": "2025-02-01"
  },
  {
    "name": "송정 7길 80 앞",
    "location": "경상남도 거창군 거창읍 송정7길 80",
    "lat": "35.68060831",
    "lng": "127.9101991",
    "base_date": "2025-02-01"
  },
  {
    "name": "올브랜드 타이어 앞",
    "location": "경상남도 거창군 거창읍 송정7길 66",
    "lat": "35.68057605",
    "lng": "127.9094712",
    "base_date": "2025-02-01"
  },
  {
    "name": "송정 9길 77 앞",
    "location": "경상남도 거창군 거창읍 송정9길 77",
    "lat": "35.68135243",
    "lng": "127.9105028",
    "base_date": "2025-02-01"
  },
  {
    "name": "송정9길 8 앞",
    "location": "경상남도 거창군 거창읍 송정9길 8",
    "lat": "35.680989",
    "lng": "127.9070219",
    "base_date": "2025-02-01"
  },
  {
    "name": "송정리 마을회관 앞",
    "location": "경상남도 거창군 거창읍 강남로1길 94-28",
    "lat": "35.68164872",
    "lng": "127.9054648",
    "base_date": "2025-02-01"
  },
  {
    "name": "송정해피엔딩 앞",
    "location": "경상남도 거창군 거창읍 송정1길 148",
    "lat": "35.6805552",
    "lng": "127.9049909",
    "base_date": "2025-02-01"
  },
  {
    "name": "스마트빌 앞",
    "location": "경상남도 거창군 거창읍 대평3길 37",
    "lat": "35.68437382",
    "lng": "127.9208972",
    "base_date": "2025-02-01"
  },
  {
    "name": "신진엘리베이트 앞",
    "location": "경상남도 거창군 거창읍 대평5길 72",
    "lat": "35.6850244",
    "lng": "127.9212199",
    "base_date": "2025-02-01"
  },
  {
    "name": "아리산 중국집 앞",
    "location": "경상남도 거창군 거창읍 강남로 186",
    "lat": "35.68500149",
    "lng": "127.9176344",
    "base_date": "2025-02-01"
  },
  {
    "name": "아림자동차 부분정비 앞",
    "location": "경상남도 거창군 거창읍 수남로 2224",
    "lat": "35.67741185",
    "lng": "127.9115471",
    "base_date": "2025-02-01"
  },
  {
    "name": "아림초등학교 후문 앞",
    "location": "경상남도 거창군 거창읍 거열로6길 12",
    "lat": "35.6892945",
    "lng": "127.904737",
    "base_date": "2025-02-01"
  },
  {
    "name": "아이티빌 앞",
    "location": "경상남도 거창군 거창읍 대평2길 13",
    "lat": "35.68295105",
    "lng": "127.9199871",
    "base_date": "2025-02-01"
  },
  {
    "name": "양평해장국 앞",
    "location": "경상남도 거창군 거창읍 상동5길 20",
    "lat": "35.68834982",
    "lng": "127.9064963",
    "base_date": "2025-02-01"
  },
  {
    "name": "에이치빌 앞",
    "location": "경상남도 거창군 거창읍 송정9길 38",
    "lat": "35.68102482",
    "lng": "127.9083562",
    "base_date": "2025-02-01"
  },
  {
    "name": "엔유 pc방 앞",
    "location": "경상남도 거창군 거창읍 강변로 117",
    "lat": "35.68444008",
    "lng": "127.909897",
    "base_date": "2025-02-01"
  },
  {
    "name": "여고후문 앞",
    "location": "경상남도 거창군 거창읍 죽전1길 72",
    "lat": "35.69274942",
    "lng": "127.9088778",
    "base_date": "2025-02-01"
  },
  {
    "name": "영주공업사 앞",
    "location": "경상남도 거창군 거창읍 거창대로3길 78",
    "lat": "35.68930622",
    "lng": "127.9196384",
    "base_date": "2025-02-01"
  },
  {
    "name": "장곰탕 앞",
    "location": "경상남도 거창군 거창읍 중앙로1길 77",
    "lat": "35.689842",
    "lng": "127.9159038",
    "base_date": "2025-02-01"
  },
  {
    "name": "장난감 나라 앞",
    "location": "경상남도 거창군 거창읍 아림로 60",
    "lat": "35.68838598",
    "lng": "127.9097441",
    "base_date": "2025-02-01"
  },
  {
    "name": "정장길 14-4",
    "location": "경상남도 거창군 거창읍 정장길 14-4",
    "lat": "35.67754568",
    "lng": "127.9117146",
    "base_date": "2025-02-01"
  },
  {
    "name": "정통 수제 통갈비 앞",
    "location": "경상남도 거창군 거창읍 중앙로 60",
    "lat": "35.68487561",
    "lng": "127.9050955",
    "base_date": "2025-02-01"
  },
  {
    "name": "제일보일러설비 앞",
    "location": "경상남도 거창군 거창읍 공수들1길 33",
    "lat": "35.6860537",
    "lng": "127.9002308",
    "base_date": "2025-02-01"
  },
  {
    "name": "제일씽크 앞",
    "location": "경상남도 거창군 거창읍 강남로1길 158",
    "lat": "35.68259082",
    "lng": "127.9092754",
    "base_date": "2025-02-01"
  },
  {
    "name": "조재하우스 앞",
    "location": "경상남도 거창군 거창읍 송정1길 124",
    "lat": "35.68052155",
    "lng": "127.9036068",
    "base_date": "2025-02-01"
  },
  {
    "name": "좋은그림미술 학원 앞",
    "location": "경상남도 거창군 거창읍 거열로4길 7-7",
    "lat": "35.68936357",
    "lng": "127.9068272",
    "base_date": "2025-02-01"
  },
  {
    "name": "죽전 5길 14 앞",
    "location": "경상남도 거창군 거창읍 죽전5길 14",
    "lat": "35.69097191",
    "lng": "127.9131009",
    "base_date": "2025-02-01"
  },
  {
    "name": "죽전길 102 앞",
    "location": "경상남도 거창군 거창읍 죽전길 102",
    "lat": "35.69031171",
    "lng": "127.9119058",
    "base_date": "2025-02-01"
  },
  {
    "name": "죽전길 52 앞",
    "location": "경상남도 거창군 거창읍 죽전길 52",
    "lat": "35.68993098",
    "lng": "127.9091599",
    "base_date": "2025-02-01"
  },
  {
    "name": "죽전길 82 앞",
    "location": "경상남도 거창군 거창읍 죽전길 82",
    "lat": "35.69004686",
    "lng": "127.9107602",
    "base_date": "2025-02-01"
  },
  {
    "name": "중앙로 12 앞",
    "location": "경상남도 거창군 거창읍 중앙로 12",
    "lat": "35.68438502",
    "lng": "127.8999439",
    "base_date": "2025-02-01"
  },
  {
    "name": "중앙아파트 앞",
    "location": "경상남도 거창군 거창읍 중앙로1길 20-15",
    "lat": "35.68788537",
    "lng": "127.9146873",
    "base_date": "2025-02-01"
  },
  {
    "name": "찬호광고 앞",
    "location": "경상남도 거창군 거창읍 거열로 241",
    "lat": "35.69350473",
    "lng": "127.9184845",
    "base_date": "2025-02-01"
  },
  {
    "name": "창남초등학교 후문 앞",
    "location": "경상남도 거창군 거창읍 창남2길 18",
    "lat": "35.68229633",
    "lng": "127.9172072",
    "base_date": "2025-02-01"
  },
  {
    "name": "청소년 문화의 집 앞",
    "location": "경상남도 거창군 거창읍 거함대로4길 60",
    "lat": "35.68316487",
    "lng": "127.9142794",
    "base_date": "2025-02-01"
  },
  {
    "name": "초록마을 원룸 앞",
    "location": "경상남도 거창군 거창읍 소만1길 15-7",
    "lat": "35.69261543",
    "lng": "127.9207785",
    "base_date": "2025-02-01"
  },
  {
    "name": "코아루 부동산 앞",
    "location": "경상남도 거창군 거창읍 강남로 266",
    "lat": "35.68785163",
    "lng": "127.9262892",
    "base_date": "2025-02-01"
  },
  {
    "name": "하나로 약국 앞",
    "location": "경상남도 거창군 거창읍 거창대로 97",
    "lat": "35.69019134",
    "lng": "127.9147046",
    "base_date": "2025-02-01"
  },
  {
    "name": "하동 5길 8 앞",
    "location": "경상남도 거창군 거창읍 하동5길 8",
    "lat": "35.6876706",
    "lng": "127.9123127",
    "base_date": "2025-02-01"
  },
  {
    "name": "한우마을 앞",
    "location": "경상남도 거창군 거창읍 거창대로2길 30",
    "lat": "35.6878567",
    "lng": "127.9174833",
    "base_date": "2025-02-01"
  },
  {
    "name": "해돋는 슈퍼 앞",
    "location": "경상남도 거창군 거창읍 강남로1길 67",
    "lat": "35.68213099",
    "lng": "127.9043715",
    "base_date": "2025-02-01"
  },
  {
    "name": "해와달 원룸 앞",
    "location": "경상남도 거창군 거창읍 송정10길 50",
    "lat": "35.6815106",
    "lng": "127.908904",
    "base_date": "2025-02-01"
  },
  {
    "name": "해피하우스 원룸 앞",
    "location": "경상남도 거창군 거창읍 소만1길 15-11",
    "lat": "35.69261295",
    "lng": "127.9205369",
    "base_date": "2025-02-01"
  },
  {
    "name": "행복한 반찬 앞",
    "location": "경상남도 거창군 거창읍 강양1길 31",
    "lat": "35.69060972",
    "lng": "127.9187602",
    "base_date": "2025-02-01"
  },
  {
    "name": "허브빌 앞",
    "location": "경상남도 거창군 거창읍 소만4길 34",
    "lat": "35.69318724",
    "lng": "127.9241806",
    "base_date": "2025-02-01"
  },
  {
    "name": "현이 미용실 앞",
    "location": "경상남도 거창군 거창읍 중앙로 194",
    "lat": "35.68853371",
    "lng": "127.9193973",
    "base_date": "2025-02-01"
  },
  {
    "name": "휴먼빌 앞",
    "location": "경상남도 거창군 거창읍 수남로 2264-20",
    "lat": "35.68110307",
    "lng": "127.9133322",
    "base_date": "2025-02-01"
  }
]