[
  {
    "name": "건국동",
    "location": "광주광역시 북구 양산택지로 79번길20",
    "lat": "35.2139421383",
    "lng": "126.8796928002",
    "base_date": "2025-05-28"
  },
  {
    "name": "건국동",
    "location": "광주광역시 북구 양산택지로 79번길 34",
    "lat": "35.2142799209",
    "lng": "126.8782054122",
    "base_date": "2025-05-28"
  },
  {
    "name": "건국동",
    "location": "광주광역시 북구 양산택지로 121번길 14-2",
    "lat": "35.2152680269",
    "lng": "126.8807619722",
    "base_date": "2025-05-28"
  },
  {
    "name": "건국동",
    "location": "광주광역시 북구 하서로 466번길 85",
    "lat": "35.2145888439",
    "lng": "126.8813973367",
    "base_date": "2025-05-28"
  },
  {
    "name": "건국동",
    "location": "광주광역시 북구 본촌마을길 183",
    "lat": "35.2173145124",
    "lng": "126.8827549291",
    "base_date": "2025-05-28"
  },
  {
    "name": "건국동",
    "location": "광주광역시 북구 하서로 466번길 20",
    "lat": "35.215629275",
    "lng": "126.8779122833",
    "base_date": "2025-05-28"
  },
  {
    "name": "건국동",
    "location": "광주광역시 북구 하서로 466번길 64",
    "lat": "35.2147842714",
    "lng": "126.8801095983",
    "base_date": "2025-05-28"
  },
  {
    "name": "건국동",
    "location": "광주광역시 북구 본촌택지로 30번길 2",
    "lat": "35.2162540418",
    "lng": "126.8801663226",
    "base_date": "2025-05-28"
  },
  {
    "name": "건국동",
    "location": "광주광역시 북구 본촌택지로 29번길 3-9",
    "lat": "35.215777976",
    "lng": "126.8793710527",
    "base_date": "2025-05-28"
  },
  {
    "name": "동림동",
    "location": "광주광역시 북구 동림용산로 12-5",
    "lat": "35.1880413017",
    "lng": "126.8685630788",
    "base_date": "2025-05-28"
  },
  {
    "name": "동림동",
    "location": "광주광역시 북구 동림용산로 31-14",
    "lat": "35.1873342948",
    "lng": "126.8662122285",
    "base_date": "2025-05-28"
  },
  {
    "name": "동림동",
    "location": "광주광역시 북구 북문대로 247번길 5",
    "lat": "35.1867564347",
    "lng": "126.865144241",
    "base_date": "2025-05-28"
  },
  {
    "name": "동림동",
    "location": "광주광역시 북구 북문대로249번길 29",
    "lat": "35.1864982887",
    "lng": "126.8635667636",
    "base_date": "2025-05-28"
  },
  {
    "name": "두암1동",
    "location": "광주광역시 북구 두방길 89",
    "lat": "35.165807486",
    "lng": "126.9305277415",
    "base_date": "2025-05-28"
  },
  {
    "name": "두암1동",
    "location": "광주광역시 북구 동문대로122번길 56",
    "lat": "35.1723335792",
    "lng": "126.9284883597",
    "base_date": "2025-05-28"
  },
  {
    "name": "두암1동",
    "location": "광주광역시 북구 군왕로 93번길 24",
    "lat": "35.1696536411",
    "lng": "126.9312348923",
    "base_date": "2025-05-28"
  },
  {
    "name": "두암1동",
    "location": "광주광역시 북구 서방로 159번길 19",
    "lat": "35.17021982",
    "lng": "126.9300199697",
    "base_date": "2025-05-28"
  },
  {
    "name": "두암1동",
    "location": "광주광역시 북구 군왕로 93번길 62",
    "lat": "35.1700871507",
    "lng": "126.9292862148",
    "base_date": "2025-05-28"
  },
  {
    "name": "두암1동",
    "location": "광주광역시 북구 서방로 148번길 9-1",
    "lat": "35.1691763656",
    "lng": "126.9282223582",
    "base_date": "2025-05-28"
  },
  {
    "name": "두암1동",
    "location": "광주광역시 북구 군왕로 51번길 67",
    "lat": "35.167695352",
    "lng": "126.9289333253",
    "base_date": "2025-05-28"
  },
  {
    "name": "두암1동",
    "location": "광주광역시 북구 군왕로 51번길 118",
    "lat": "35.1692287816",
    "lng": "126.9270141624",
    "base_date": "2025-05-28"
  },
  {
    "name": "두암2동",
    "location": "광주광역시 북구 동문대로191번길 28",
    "lat": "35.1799469107",
    "lng": "126.9281031385",
    "base_date": "2025-05-28"
  },
  {
    "name": "두암2동",
    "location": "광주광역시 북구 월동로 24",
    "lat": "35.1737985504",
    "lng": "126.9351657276",
    "base_date": "2025-05-28"
  },
  {
    "name": "두암2동",
    "location": "광주광역시 북구 군왕로 182번길 21-1",
    "lat": "35.1770359036",
    "lng": "126.9353211806",
    "base_date": "2025-05-28"
  },
  {
    "name": "두암2동",
    "location": "광주광역시 북구 월동로 63번길 8",
    "lat": "35.1772956804",
    "lng": "126.9361631385",
    "base_date": "2025-05-28"
  },
  {
    "name": "두암2동",
    "location": "광주광역시 북구 면앙로 193",
    "lat": "35.1754172804",
    "lng": "126.9326855333",
    "base_date": "2025-05-28"
  },
  {
    "name": "두암2동",
    "location": "광주광역시 북구 면앙로 170번길 12",
    "lat": "35.1752749659",
    "lng": "126.9298330665",
    "base_date": "2025-05-28"
  },
  {
    "name": "두암2동",
    "location": "광주광역시 북구 서방로 135번길 78",
    "lat": "35.1728740603",
    "lng": "126.929469284",
    "base_date": "2025-05-28"
  },
  {
    "name": "두암2동",
    "location": "광주광역시 북구 서방로 181번길 76",
    "lat": "35.1722202547",
    "lng": "126.9319917495",
    "base_date": "2025-05-28"
  },
  {
    "name": "두암2동",
    "location": "광주광역시 북구 면앙로 165번길 38",
    "lat": "35.1776606515",
    "lng": "126.930515444",
    "base_date": "2025-05-28"
  },
  {
    "name": "두암2동",
    "location": "광주광역시 북구 군왕로 171번길 10-8",
    "lat": "35.1769840363",
    "lng": "126.9335213977",
    "base_date": "2025-05-28"
  },
  {
    "name": "두암2동",
    "location": "광주광역시 북구 군왕로 171번길 32-1",
    "lat": "35.1771328418",
    "lng": "126.9319934561",
    "base_date": "2025-05-28"
  },
  {
    "name": "두암3동",
    "location": "광주광역시 북구 탁영로 17",
    "lat": "35.1666812257",
    "lng": "126.9345558598",
    "base_date": "2025-05-28"
  },
  {
    "name": "두암3동",
    "location": "광주광역시 북구 군왕로 46번길 38",
    "lat": "35.1639810143",
    "lng": "126.9329555073",
    "base_date": "2025-05-28"
  },
  {
    "name": "두암3동",
    "location": "광주광역시 북구 밤실로 181번길 21",
    "lat": "35.1629735992",
    "lng": "126.9331991544",
    "base_date": "2025-05-28"
  },
  {
    "name": "두암3동",
    "location": "광주광역시 북구 삼정로 3번길 45",
    "lat": "35.1646942466",
    "lng": "126.9341097395",
    "base_date": "2025-05-28"
  },
  {
    "name": "두암3동",
    "location": "광주광역시 북구 삼정로 66번길 37",
    "lat": "35.1688465564",
    "lng": "126.9388966244",
    "base_date": "2025-05-28"
  },
  {
    "name": "두암3동",
    "location": "광주광역시 북구 삼정소로길 81",
    "lat": "35.170835243",
    "lng": "126.9354238629",
    "base_date": "2025-05-28"
  },
  {
    "name": "두암3동",
    "location": "광주광역시 북구 삼정로 137",
    "lat": "35.1714615638",
    "lng": "126.9338678597",
    "base_date": "2025-05-28"
  },
  {
    "name": "두암3동",
    "location": "광주광역시 북구 참판로 151",
    "lat": "35.1711141533",
    "lng": "126.9333125302",
    "base_date": "2025-05-28"
  },
  {
    "name": "문화동",
    "location": "광주광역시 북구 군왕로 207번길 57-1",
    "lat": "35.1802134714",
    "lng": "126.9327766268",
    "base_date": "2025-05-28"
  },
  {
    "name": "문화동",
    "location": "광주광역시 북구 월동로 71",
    "lat": "35.1776086628",
    "lng": "126.9369056037",
    "base_date": "2025-05-28"
  },
  {
    "name": "문화동",
    "location": "광주광역시 북구 월동로 81",
    "lat": "35.1782901105",
    "lng": "126.9375225226",
    "base_date": "2025-05-28"
  },
  {
    "name": "문화동",
    "location": "광주광역시 북구 군왕로 193번길 38",
    "lat": "35.1789869508",
    "lng": "126.9327048078",
    "base_date": "2025-05-28"
  },
  {
    "name": "문화동",
    "location": "광주광역시 북구 군왕로 207번길 57-1",
    "lat": "35.1802134714",
    "lng": "126.9327766268",
    "base_date": "2025-05-28"
  },
  {
    "name": "문화동",
    "location": "광주광역시 북구 중문로 84번길 33",
    "lat": "35.1797539747",
    "lng": "126.9226053063",
    "base_date": "2025-05-28"
  },
  {
    "name": "문화동",
    "location": "광주광역시 북구 면앙로 121번길 50",
    "lat": "35.1792822567",
    "lng": "126.9263333024",
    "base_date": "2025-05-28"
  },
  {
    "name": "문화동",
    "location": "광주광역시 북구 면앙로 133번길 57",
    "lat": "35.1793541856",
    "lng": "126.9273314208",
    "base_date": "2025-05-28"
  },
  {
    "name": "문화동",
    "location": "광주광역시 북구 평교로 30번길 6-1",
    "lat": "35.1798348309",
    "lng": "126.925623404",
    "base_date": "2025-05-28"
  },
  {
    "name": "문화동",
    "location": "광주광역시 북구 평교로 30번길 18",
    "lat": "35.1796601155",
    "lng": "126.9262514889",
    "base_date": "2025-05-28"
  },
  {
    "name": "문흥1동",
    "location": "광주광역시 북구 문산로 74번길 47",
    "lat": "35.1867649658",
    "lng": "126.9274867061",
    "base_date": "2025-05-28"
  },
  {
    "name": "문흥1동",
    "location": "광주광역시 북구 문산로 74번길 45",
    "lat": "35.1868448189",
    "lng": "126.9273429219",
    "base_date": "2025-05-28"
  },
  {
    "name": "문흥1동",
    "location": "광주광역시 북구 부남길 15번길 33",
    "lat": "35.1888354637",
    "lng": "126.9261638973",
    "base_date": "2025-05-28"
  },
  {
    "name": "문흥1동",
    "location": "광주광역시 북구 대천로 157번길 108",
    "lat": "35.190468706",
    "lng": "126.9233095438",
    "base_date": "2025-05-28"
  },
  {
    "name": "문흥1동",
    "location": "광주광역시 북구 대천로 157번길 80",
    "lat": "35.1907464847",
    "lng": "126.9221090377",
    "base_date": "2025-05-28"
  },
  {
    "name": "문흥1동",
    "location": "광주광역시 북구 대천로 157번길 69",
    "lat": "35.1904534873",
    "lng": "126.9215968328",
    "base_date": "2025-05-28"
  },
  {
    "name": "문흥1동",
    "location": "광주광역시 북구 대천로 157번길 11",
    "lat": "35.188332842",
    "lng": "126.9213283572",
    "base_date": "2025-05-28"
  },
  {
    "name": "문흥1동",
    "location": "광주광역시 북구 대천로 139번길 16",
    "lat": "35.1873581155",
    "lng": "126.9201773644",
    "base_date": "2025-05-28"
  },
  {
    "name": "문흥1동",
    "location": "광주광역시 북구 능안로 30번길 26",
    "lat": "35.18782249",
    "lng": "126.9186779703",
    "base_date": "2025-05-28"
  },
  {
    "name": "문흥2동",
    "location": "광주광역시 북구 능안로 12번길 13",
    "lat": "35.1864452003",
    "lng": "126.9178727173",
    "base_date": "2025-05-28"
  },
  {
    "name": "문흥2동",
    "location": "광주광역시 북구 호동로 73번길 40",
    "lat": "35.1780429994",
    "lng": "126.9157113802",
    "base_date": "2025-05-28"
  },
  {
    "name": "삼각동",
    "location": "광주광역시 북구 설죽로 436번길 7",
    "lat": "35.1982689992",
    "lng": "126.9005744187",
    "base_date": "2025-05-28"
  },
  {
    "name": "삼각동",
    "location": "광주광역시 북구 우치로 361번길 26",
    "lat": "35.1974692958",
    "lng": "126.9018480092",
    "base_date": "2025-05-28"
  },
  {
    "name": "삼각동",
    "location": "광주광역시 북구 송해로 10",
    "lat": "35.1995862932",
    "lng": "126.9017097383",
    "base_date": "2025-05-28"
  },
  {
    "name": "삼각동",
    "location": "광주광역시 북구 송해로 21-20",
    "lat": "35.2006919289",
    "lng": "126.9003770871",
    "base_date": "2025-05-28"
  },
  {
    "name": "삼각동",
    "location": "광주광역시 북구 송해로 39번길 3-16",
    "lat": "35.2010175819",
    "lng": "126.9005044826",
    "base_date": "2025-05-28"
  },
  {
    "name": "삼각동",
    "location": "광주광역시 북구 송해로 40번길 8-13",
    "lat": "35.201466969",
    "lng": "126.9013550033",
    "base_date": "2025-05-28"
  },
  {
    "name": "삼각동",
    "location": "광주광역시 북구 양일로 344번길 31",
    "lat": "35.2018245327",
    "lng": "126.9020200784",
    "base_date": "2025-05-28"
  },
  {
    "name": "삼각동",
    "location": "광주광역시 북구 설죽로 455번길 1",
    "lat": "35.1997189003",
    "lng": "126.8994348011",
    "base_date": "2025-05-28"
  },
  {
    "name": "삼각동",
    "location": "광주광역시 북구 설죽로 471번길 22",
    "lat": "35.2008759174",
    "lng": "126.89681658",
    "base_date": "2025-05-28"
  },
  {
    "name": "삼각동",
    "location": "광주광역시 북구 설죽로 471번길 78-9",
    "lat": "35.2012927997",
    "lng": "126.8970635275",
    "base_date": "2025-05-28"
  },
  {
    "name": "신안동",
    "location": "광주광역시 북구 설죽로 126번길 15",
    "lat": "35.1713153423",
    "lng": "126.8973472276",
    "base_date": "2025-05-28"
  },
  {
    "name": "신안동",
    "location": "광주광역시 북구 서암대로 119번길 23",
    "lat": "35.1717160938",
    "lng": "126.8978028853",
    "base_date": "2025-05-28"
  },
  {
    "name": "신안동",
    "location": "광주광역시 북구 설죽로 126번길30",
    "lat": "35.1709248658",
    "lng": "126.8980221227",
    "base_date": "2025-05-28"
  },
  {
    "name": "신안동",
    "location": "광주광역시 북구 설죽로 126번길49",
    "lat": "35.1709724779",
    "lng": "126.8992948771",
    "base_date": "2025-05-28"
  },
  {
    "name": "신안동",
    "location": "광주광역시 북구 서양로 16",
    "lat": "35.1709246754",
    "lng": "126.9029729993",
    "base_date": "2025-05-28"
  },
  {
    "name": "신안동",
    "location": "광주광역시 북구 자동차로48번길 50",
    "lat": "35.1627317727",
    "lng": "126.9040488067",
    "base_date": "2025-05-28"
  },
  {
    "name": "신안동",
    "location": "광주광역시 북구 경양로 103번길 27-10",
    "lat": "35.1634326879",
    "lng": "126.9038089089",
    "base_date": "2025-05-28"
  },
  {
    "name": "신안동",
    "location": "광주광역시 북구 경양로 119번길 10-8",
    "lat": "35.1617307625",
    "lng": "126.9059940489",
    "base_date": "2025-05-28"
  },
  {
    "name": "신안동",
    "location": "광주광역시 북구 경양로 87번길 8-8",
    "lat": "35.1628050297",
    "lng": "126.9021818272",
    "base_date": "2025-05-28"
  },
  {
    "name": "신안동",
    "location": "광주광역시 북구 경양로 89",
    "lat": "35.1626317008",
    "lng": "126.9019536481",
    "base_date": "2025-05-28"
  },
  {
    "name": "신안동",
    "location": "광주광역시 북구 경양로97번길 6",
    "lat": "35.1625952761",
    "lng": "126.9029090865",
    "base_date": "2025-05-28"
  },
  {
    "name": "신안동",
    "location": "광주광역시 북구 자동차로 48번길 33",
    "lat": "35.1631579394",
    "lng": "126.9033296243",
    "base_date": "2025-05-28"
  },
  {
    "name": "신안동",
    "location": "광주광역시 북구 중흥로73번길 18-2",
    "lat": "35.1648556986",
    "lng": "126.9026811892",
    "base_date": "2025-05-28"
  },
  {
    "name": "신안동",
    "location": "광주광역시 북구 금호로 24번길 20",
    "lat": "35.1709878361",
    "lng": "126.8920714424",
    "base_date": "2025-05-28"
  },
  {
    "name": "신안동",
    "location": "광주광역시 북구 들재매길 11",
    "lat": "35.1703437123",
    "lng": "126.8955710014",
    "base_date": "2025-05-28"
  },
  {
    "name": "신안동",
    "location": "광주광역시 북구 들자미길 46",
    "lat": "35.1690963345",
    "lng": "126.8961806203",
    "base_date": "2025-05-28"
  },
  {
    "name": "신안동",
    "location": "광주광역시 북구 들재매길 101",
    "lat": "35.1689726396",
    "lng": "126.8994315652",
    "base_date": "2025-05-28"
  },
  {
    "name": "신안동",
    "location": "광주광역시 북구 서림로 81번길 49",
    "lat": "35.1666256126",
    "lng": "126.8970701678",
    "base_date": "2025-05-28"
  },
  {
    "name": "신안동",
    "location": "광주광역시 북구 무등로 104",
    "lat": "35.1676282739",
    "lng": "126.8953222655",
    "base_date": "2025-05-28"
  },
  {
    "name": "신안동",
    "location": "광주광역시 북구 무등로 128-10",
    "lat": "35.1667202302",
    "lng": "126.897562856",
    "base_date": "2025-05-28"
  },
  {
    "name": "신안동",
    "location": "광주광역시 북구 무등로154번길 23-2",
    "lat": "35.1652569349",
    "lng": "126.9002060295",
    "base_date": "2025-05-28"
  },
  {
    "name": "신안동",
    "location": "광주광역시 북구 무등로 164번길 9",
    "lat": "35.1655670858",
    "lng": "126.9016068934",
    "base_date": "2025-05-28"
  },
  {
    "name": "신안동",
    "location": "광주광역시 북구 서암대로 90번길 5",
    "lat": "35.1708807894",
    "lng": "126.8941696013",
    "base_date": "2025-05-28"
  },
  {
    "name": "신안동",
    "location": "광주광역시 북구 서암대로 90번길 25",
    "lat": "35.1703424304",
    "lng": "126.8934523686",
    "base_date": "2025-05-28"
  },
  {
    "name": "신안동",
    "location": "광주광역시 북구 서암대로 100",
    "lat": "35.1708362151",
    "lng": "126.8952130693",
    "base_date": "2025-05-28"
  },
  {
    "name": "신안동",
    "location": "광주광역시 북구 서암대로 144번길 12",
    "lat": "35.1692360015",
    "lng": "126.8996475676",
    "base_date": "2025-05-28"
  },
  {
    "name": "신안동",
    "location": "광주광역시 북구 서암대로 160번길 3",
    "lat": "35.1690196754",
    "lng": "126.9016373679",
    "base_date": "2025-05-28"
  },
  {
    "name": "신안동",
    "location": "광주광역시 북구 서암대로 208번길 48",
    "lat": "35.1677158445",
    "lng": "126.9039820267",
    "base_date": "2025-05-28"
  },
  {
    "name": "신안동",
    "location": "광주광역시 북구 신임로 25",
    "lat": "35.165789085",
    "lng": "126.898255971",
    "base_date": "2025-05-28"
  },
  {
    "name": "신안동",
    "location": "광주광역시 북구 자동차로 65-6",
    "lat": "35.1654316953",
    "lng": "126.9015867578",
    "base_date": "2025-05-28"
  },
  {
    "name": "신안동",
    "location": "광주광역시 북구 자미로 17",
    "lat": "35.1678402203",
    "lng": "126.9027838521",
    "base_date": "2025-05-28"
  },
  {
    "name": "신안동",
    "location": "광주광역시 북구 무등로 71-7",
    "lat": "35.1691693668",
    "lng": "126.8923266009",
    "base_date": "2025-05-28"
  },
  {
    "name": "신안동",
    "location": "광주광역시 북구 자산로 15번길 17",
    "lat": "35.1696014791",
    "lng": "126.8942417866",
    "base_date": "2025-05-28"
  },
  {
    "name": "신안동",
    "location": "광주광역시 북구 중흥로 17번길 8",
    "lat": "35.1660273765",
    "lng": "126.8967050205",
    "base_date": "2025-05-28"
  },
  {
    "name": "신안동",
    "location": "광주광역시 북구 중흥로 47",
    "lat": "35.1649188837",
    "lng": "126.8997056447",
    "base_date": "2025-05-28"
  },
  {
    "name": "신안동",
    "location": "광주광역시 북구 중흥로 61",
    "lat": "35.164588934",
    "lng": "126.9010931466",
    "base_date": "2025-05-28"
  },
  {
    "name": "신용동",
    "location": "광주광역시 북구 첨단연신로 108번길 73",
    "lat": "35.2096883697",
    "lng": "126.8661984725",
    "base_date": "2025-05-28"
  },
  {
    "name": "신용동",
    "location": "광주광역시 북구 첨단연신로 108번길 51-3",
    "lat": "35.2085594316",
    "lng": "126.8659615479",
    "base_date": "2025-05-28"
  },
  {
    "name": "양산동",
    "location": "광주광역시 북구 양일로 18번길 11",
    "lat": "35.1967706421",
    "lng": "126.867058595",
    "base_date": "2025-05-28"
  },
  {
    "name": "양산동",
    "location": "광주광역시 북구 양지길 31번길 31",
    "lat": "35.2072494959",
    "lng": "126.8801909664",
    "base_date": "2025-05-28"
  },
  {
    "name": "양산동",
    "location": "광주광역시 북구 연양로 105번길 8",
    "lat": "35.2070515038",
    "lng": "126.8792491962",
    "base_date": "2025-05-28"
  },
  {
    "name": "양산동",
    "location": "광주광역시 북구 양산택지로 33번길 6",
    "lat": "35.2096177731",
    "lng": "126.8789613736",
    "base_date": "2025-05-28"
  },
  {
    "name": "양산동",
    "location": "광주광역시 북구 연양로 28번길 18",
    "lat": "35.2053453493",
    "lng": "126.8702343019",
    "base_date": "2025-05-28"
  },
  {
    "name": "양산동",
    "location": "광주광역시 북구 양산제로 137번길 34-14",
    "lat": "35.2052345388",
    "lng": "126.8689838724",
    "base_date": "2025-05-28"
  },
  {
    "name": "양산동",
    "location": "광주광역시 북구 연양로 14",
    "lat": "35.2060799834",
    "lng": "126.8687854662",
    "base_date": "2025-05-28"
  },
  {
    "name": "양산동",
    "location": "광주광역시 북구 양산신촌길 66-1",
    "lat": "35.1984200802",
    "lng": "126.8738221078",
    "base_date": "2025-05-28"
  },
  {
    "name": "양산동",
    "location": "광주광역시 북구 양산신촌길 37",
    "lat": "35.1987812325",
    "lng": "126.8729166657",
    "base_date": "2025-05-28"
  },
  {
    "name": "양산동",
    "location": "광주광역시 북구 양지길 2번길 1",
    "lat": "35.2049502683",
    "lng": "126.8820674844",
    "base_date": "2025-05-28"
  },
  {
    "name": "양산동",
    "location": "광주광역시 북구 자라봉로 72",
    "lat": "35.2078845465",
    "lng": "126.8816099832",
    "base_date": "2025-05-28"
  },
  {
    "name": "양산동",
    "location": "광주광역시 북구 자라봉로 61",
    "lat": "35.2078653987",
    "lng": "126.8805119959",
    "base_date": "2025-05-28"
  },
  {
    "name": "양산동",
    "location": "광주광역시 북구 연양로 95번길 5",
    "lat": "35.2071465521",
    "lng": "126.8778311629",
    "base_date": "2025-05-28"
  },
  {
    "name": "양산동",
    "location": "광주광역시 북구 양산택지로 37번길 102",
    "lat": "35.2070334788",
    "lng": "126.8763281308",
    "base_date": "2025-05-28"
  },
  {
    "name": "양산동",
    "location": "광주광역시 북구 연양로 67번길 5",
    "lat": "35.2072791596",
    "lng": "126.8746334595",
    "base_date": "2025-05-28"
  },
  {
    "name": "양산동",
    "location": "광주광역시 북구 양산택지로 37번길 62",
    "lat": "35.2088292307",
    "lng": "126.8746011161",
    "base_date": "2025-05-28"
  },
  {
    "name": "양산동",
    "location": "광주광역시 북구 양산택지로 37번길 55",
    "lat": "35.209391785",
    "lng": "126.8749997229",
    "base_date": "2025-05-28"
  },
  {
    "name": "오치1동",
    "location": "광주광역시 북구 능안로 29번길 13-1",
    "lat": "35.1877842777",
    "lng": "126.9164166295",
    "base_date": "2025-05-28"
  },
  {
    "name": "오치1동",
    "location": "광주광역시 북구 대천로 79-1",
    "lat": "35.1852051306",
    "lng": "126.9152760164",
    "base_date": "2025-05-28"
  },
  {
    "name": "오치1동",
    "location": "광주광역시 북구 대천로 67",
    "lat": "35.1852194938",
    "lng": "126.9138594719",
    "base_date": "2025-05-28"
  },
  {
    "name": "오치1동",
    "location": "광주광역시 북구 대천로 36",
    "lat": "35.1850997261",
    "lng": "126.9105562432",
    "base_date": "2025-05-28"
  },
  {
    "name": "오치1동",
    "location": "광주광역시 북구 대천로 16",
    "lat": "35.1849630137",
    "lng": "126.9083841348",
    "base_date": "2025-05-28"
  },
  {
    "name": "오치1동",
    "location": "광주광역시 북구 우치로 228번길 36-5",
    "lat": "35.1859933535",
    "lng": "126.9076896401",
    "base_date": "2025-05-28"
  },
  {
    "name": "오치1동",
    "location": "광주광역시 북구 서하로 274번길 10",
    "lat": "35.1866115053",
    "lng": "126.9102725807",
    "base_date": "2025-05-28"
  },
  {
    "name": "오치1동",
    "location": "광주광역시 북구 서하로 315번길 12",
    "lat": "35.1876023364",
    "lng": "126.9152222424",
    "base_date": "2025-05-28"
  },
  {
    "name": "오치1동",
    "location": "광주광역시 북구 송월로 30번길 46",
    "lat": "35.1863175329",
    "lng": "126.9156894595",
    "base_date": "2025-05-28"
  },
  {
    "name": "오치1동",
    "location": "광주광역시 북구 송월로 62",
    "lat": "35.1892209734",
    "lng": "126.9137843347",
    "base_date": "2025-05-28"
  },
  {
    "name": "오치1동",
    "location": "광주광역시 북구 신촌로 23번길 8",
    "lat": "35.1893477564",
    "lng": "126.9118391823",
    "base_date": "2025-05-28"
  },
  {
    "name": "오치1동",
    "location": "광주광역시 북구 신촌로 23번길 27",
    "lat": "35.189155672",
    "lng": "126.9105241383",
    "base_date": "2025-05-28"
  },
  {
    "name": "오치2동",
    "location": "광주광역시 북구 우치로 257번길 9-1",
    "lat": "35.1877821376",
    "lng": "126.9041412108",
    "base_date": "2025-05-28"
  },
  {
    "name": "오치2동",
    "location": "광주광역시 북구 우치로 303번길 26",
    "lat": "35.1911953905",
    "lng": "126.9038099534",
    "base_date": "2025-05-28"
  },
  {
    "name": "오치2동",
    "location": "광주광역시 북구 설죽로 358",
    "lat": "35.1916051527",
    "lng": "126.8992915406",
    "base_date": "2025-05-28"
  },
  {
    "name": "용봉동",
    "location": "광주광역시 북구 반룡로 18번길 10-1",
    "lat": "35.1787000983",
    "lng": "126.8995970562",
    "base_date": "2025-05-28"
  },
  {
    "name": "용봉동",
    "location": "광주광역시 북구 설죽로 214번길 36",
    "lat": "35.1781785536",
    "lng": "126.8997358181",
    "base_date": "2025-05-28"
  },
  {
    "name": "용봉동",
    "location": "광주광역시 북구 반룡로 17번길 18",
    "lat": "35.1801031491",
    "lng": "126.9002478767",
    "base_date": "2025-05-28"
  },
  {
    "name": "용봉동",
    "location": "광주광역시 북구 반룡로 41번길 19",
    "lat": "35.179674287",
    "lng": "126.9026579868",
    "base_date": "2025-05-28"
  },
  {
    "name": "용봉동",
    "location": "광주광역시 북구 문화소통로 108번길 22-3",
    "lat": "35.1823387387",
    "lng": "126.9062453197",
    "base_date": "2025-05-28"
  },
  {
    "name": "용봉동",
    "location": "광주광역시 북구 문화소통로 108번길 37",
    "lat": "35.18201903",
    "lng": "126.9067765916",
    "base_date": "2025-05-28"
  },
  {
    "name": "용봉동",
    "location": "광주광역시 북구 효산로 12번길 12-1",
    "lat": "35.1814384146",
    "lng": "126.9133827194",
    "base_date": "2025-05-28"
  },
  {
    "name": "용봉동",
    "location": "광주광역시 북구 면앙로 32번길 26",
    "lat": "35.1782839895",
    "lng": "126.9154446989",
    "base_date": "2025-05-28"
  },
  {
    "name": "용봉동",
    "location": "광주광역시 북구 호동로 43번길 55",
    "lat": "35.1758708664",
    "lng": "126.9137201907",
    "base_date": "2025-05-28"
  },
  {
    "name": "용봉동",
    "location": "광주광역시 북구 반룡로 5번길 7",
    "lat": "35.1799178614",
    "lng": "126.8987023647",
    "base_date": "2025-05-28"
  },
  {
    "name": "용봉동",
    "location": "광주광역시 북구 반룡로 5번길 21",
    "lat": "35.1804005201",
    "lng": "126.8992448037",
    "base_date": "2025-05-28"
  },
  {
    "name": "용봉동",
    "location": "광주광역시 북구 반룡로 42번길 1",
    "lat": "35.1785829481",
    "lng": "126.9025848063",
    "base_date": "2025-05-28"
  },
  {
    "name": "용봉동",
    "location": "광주광역시 북구 용주로 18번길 53",
    "lat": "35.1803236031",
    "lng": "126.9026931864",
    "base_date": "2025-05-28"
  },
  {
    "name": "용봉동",
    "location": "광주광역시 북구 용주로 46번길 15",
    "lat": "35.1821520245",
    "lng": "126.9035359893",
    "base_date": "2025-05-28"
  },
  {
    "name": "용봉동",
    "location": "광주광역시 북구 고운로 42",
    "lat": "35.1828582743",
    "lng": "126.9028897251",
    "base_date": "2025-05-28"
  },
  {
    "name": "용봉동",
    "location": "광주광역시 북구 문화소통로108번길 51",
    "lat": "35.1815709639",
    "lng": "126.9070680373",
    "base_date": "2025-05-28"
  },
  {
    "name": "용봉동",
    "location": "광주광역시 북구 설죽로 148번길 45-1",
    "lat": "35.1745663522",
    "lng": "126.8970179605",
    "base_date": "2025-05-28"
  },
  {
    "name": "용봉동",
    "location": "광주광역시 북구 설죽로 148번길 88",
    "lat": "35.1761747779",
    "lng": "126.8984453925",
    "base_date": "2025-05-28"
  },
  {
    "name": "용봉동",
    "location": "광주광역시 북구 비엔날레로 82번길 19",
    "lat": "35.1791821187",
    "lng": "126.8921470419",
    "base_date": "2025-05-28"
  },
  {
    "name": "용봉동",
    "location": "광주광역시 북구 비엔날레로 82번길 32",
    "lat": "35.180130962",
    "lng": "126.8924086532",
    "base_date": "2025-05-28"
  },
  {
    "name": "용봉동",
    "location": "광주광역시 북구 비엔날레로93번길 11-7",
    "lat": "35.1799063817",
    "lng": "126.889535265",
    "base_date": "2025-05-28"
  },
  {
    "name": "용봉동",
    "location": "광주광역시 북구 비엔날레로 155번길 29",
    "lat": "35.1837713016",
    "lng": "126.8952358962",
    "base_date": "2025-05-28"
  },
  {
    "name": "용봉동",
    "location": "광주광역시 북구 비엔날레로 182-4",
    "lat": "35.1829811614",
    "lng": "126.8965640748",
    "base_date": "2025-05-28"
  },
  {
    "name": "용봉동",
    "location": "광주광역시 북구 설죽로217번길 36",
    "lat": "35.1793323398",
    "lng": "126.8937918066",
    "base_date": "2025-05-28"
  },
  {
    "name": "용봉동",
    "location": "광주광역시 북구 설죽로 251번길 69",
    "lat": "35.1820240407",
    "lng": "126.8944031458",
    "base_date": "2025-05-28"
  },
  {
    "name": "용봉동",
    "location": "광주광역시 북구 설죽로 251번길 8-7",
    "lat": "35.1824227433",
    "lng": "126.8976036472",
    "base_date": "2025-05-28"
  },
  {
    "name": "용봉동",
    "location": "광주광역시 북구 저불로 73번길 15",
    "lat": "35.1809973895",
    "lng": "126.8945048619",
    "base_date": "2025-05-28"
  },
  {
    "name": "용봉동",
    "location": "광주광역시 북구 저불로 73번길 37",
    "lat": "35.1810398516",
    "lng": "126.8932307353",
    "base_date": "2025-05-28"
  },
  {
    "name": "우산동",
    "location": "광주광역시 북구 면앙로 89번길 7",
    "lat": "35.1785306105",
    "lng": "126.921874883",
    "base_date": "2025-05-28"
  },
  {
    "name": "우산동",
    "location": "광주광역시 북구 면앙로 89번길 27",
    "lat": "35.1792542705",
    "lng": "126.922161765",
    "base_date": "2025-05-28"
  },
  {
    "name": "우산동",
    "location": "광주광역시 북구 평교로 6번길 19",
    "lat": "35.1777961804",
    "lng": "126.92545258",
    "base_date": "2025-05-28"
  },
  {
    "name": "우산동",
    "location": "광주광역시 북구 면앙로 133번길 13",
    "lat": "35.1775358071",
    "lng": "126.9265867842",
    "base_date": "2025-05-28"
  },
  {
    "name": "우산동",
    "location": "광주광역시 북구 면앙로 121번길 39",
    "lat": "35.1788997327",
    "lng": "126.9258882011",
    "base_date": "2025-05-28"
  },
  {
    "name": "우산동",
    "location": "광주광역시 북구 문화소통로 264",
    "lat": "35.1811607548",
    "lng": "126.9226745985",
    "base_date": "2025-05-28"
  },
  {
    "name": "우산동",
    "location": "광주광역시 북구 문화소통로 242",
    "lat": "35.1812752519",
    "lng": "126.9203455489",
    "base_date": "2025-05-28"
  },
  {
    "name": "우산동",
    "location": "광주광역시 북구 중문로 83번길 21",
    "lat": "35.1805675607",
    "lng": "126.9198279092",
    "base_date": "2025-05-28"
  },
  {
    "name": "우산동",
    "location": "광주광역시 북구 서암대로 291",
    "lat": "35.1659364368",
    "lng": "126.9156084416",
    "base_date": "2025-05-28"
  },
  {
    "name": "우산동",
    "location": "광주광역시 북구 서양로 145",
    "lat": "35.1676505493",
    "lng": "126.9167822234",
    "base_date": "2025-05-28"
  },
  {
    "name": "우산동",
    "location": "광주광역시 북구 서방로 81번길 76",
    "lat": "35.1740271254",
    "lng": "126.9242945303",
    "base_date": "2025-05-28"
  },
  {
    "name": "우산동",
    "location": "광주광역시 북구 감적길 28",
    "lat": "35.1758379225",
    "lng": "126.922151909",
    "base_date": "2025-05-28"
  },
  {
    "name": "우산동",
    "location": "광주광역시 북구 감적길 18",
    "lat": "35.1760018473",
    "lng": "126.9213263789",
    "base_date": "2025-05-28"
  },
  {
    "name": "우산동",
    "location": "광주광역시 북구 서방로 81번길 102",
    "lat": "35.1751305845",
    "lng": "126.9247191399",
    "base_date": "2025-05-28"
  },
  {
    "name": "운암1동",
    "location": "광주광역시 북구 대자로 14-4",
    "lat": "35.1732644067",
    "lng": "126.874025962",
    "base_date": "2025-05-28"
  },
  {
    "name": "운암1동",
    "location": "광주광역시 북구 동운로 201번길 5",
    "lat": "35.17443613",
    "lng": "126.8720777014",
    "base_date": "2025-05-28"
  },
  {
    "name": "운암1동",
    "location": "광주광역시 북구 동운로 201번길 13-4",
    "lat": "35.175260264",
    "lng": "126.8724944784",
    "base_date": "2025-05-28"
  },
  {
    "name": "운암1동",
    "location": "광주광역시 북구 동운로201번길 70",
    "lat": "35.1745830603",
    "lng": "126.8752812523",
    "base_date": "2025-05-28"
  },
  {
    "name": "운암1동",
    "location": "광주광역시 북구 북문대로 103번길 58",
    "lat": "35.1772393049",
    "lng": "126.8740041572",
    "base_date": "2025-05-28"
  },
  {
    "name": "운암1동",
    "location": "광주광역시 북구 서강로 53번길 6",
    "lat": "35.1766586066",
    "lng": "126.8706857349",
    "base_date": "2025-05-28"
  },
  {
    "name": "운암1동",
    "location": "광주광역시 북구 서강로53번길 42-2",
    "lat": "35.1771294274",
    "lng": "126.8699436824",
    "base_date": "2025-05-28"
  },
  {
    "name": "운암1동",
    "location": "광주광역시 북구 서강로 62번길 9",
    "lat": "35.1773088247",
    "lng": "126.8717855687",
    "base_date": "2025-05-28"
  },
  {
    "name": "운암1동",
    "location": "광주광역시 북구 서강로 62번길 23-1",
    "lat": "35.1772419299",
    "lng": "126.8723463883",
    "base_date": "2025-05-28"
  },
  {
    "name": "운암1동",
    "location": "광주광역시 북구 서강로 67번길 10",
    "lat": "35.1779110607",
    "lng": "126.8706354992",
    "base_date": "2025-05-28"
  },
  {
    "name": "운암1동",
    "location": "광주광역시 북구 서강로 67번길 10",
    "lat": "35.1779110607",
    "lng": "126.8706354992",
    "base_date": "2025-05-28"
  },
  {
    "name": "운암1동",
    "location": "광주광역시 북구 서강로 67번길 26",
    "lat": "35.1780281364",
    "lng": "126.8696567986",
    "base_date": "2025-05-28"
  },
  {
    "name": "운암1동",
    "location": "광주광역시 북구 서강로 79",
    "lat": "35.1790372147",
    "lng": "126.8715421447",
    "base_date": "2025-05-28"
  },
  {
    "name": "운암1동",
    "location": "광주광역시 북구 서강로 82번길 19",
    "lat": "35.1785792751",
    "lng": "126.8727012126",
    "base_date": "2025-05-28"
  },
  {
    "name": "운암1동",
    "location": "광주광역시 북구 운신북길 19",
    "lat": "35.1728709052",
    "lng": "126.8743607137",
    "base_date": "2025-05-28"
  },
  {
    "name": "운암1동",
    "location": "광주광역시 북구 황계로 9",
    "lat": "35.1735861123",
    "lng": "126.875668213",
    "base_date": "2025-05-28"
  },
  {
    "name": "운암1동",
    "location": "광주광역시 북구 동운로 201번길 26",
    "lat": "35.174679133",
    "lng": "126.8730074808",
    "base_date": "2025-05-28"
  },
  {
    "name": "운암2동",
    "location": "광주광역시 북구 금호로 120-9",
    "lat": "35.1762695822",
    "lng": "126.882207278",
    "base_date": "2025-05-28"
  },
  {
    "name": "운암2동",
    "location": "광주광역시 북구 금호로 120번길 38",
    "lat": "35.1767985897",
    "lng": "126.8828807012",
    "base_date": "2025-05-28"
  },
  {
    "name": "운암2동",
    "location": "광주광역시 북구 금호로 52",
    "lat": "35.1741115653",
    "lng": "126.8886698624",
    "base_date": "2025-05-28"
  },
  {
    "name": "운암2동",
    "location": "광주광역시 북구 금호로 62",
    "lat": "35.1744914658",
    "lng": "126.8878303702",
    "base_date": "2025-05-28"
  },
  {
    "name": "운암2동",
    "location": "광주광역시 북구 운신북길 63",
    "lat": "35.1727498011",
    "lng": "126.8768543327",
    "base_date": "2025-05-28"
  },
  {
    "name": "운암2동",
    "location": "광주광역시 북구 대자로 48-16",
    "lat": "35.1726918948",
    "lng": "126.8774149936",
    "base_date": "2025-05-28"
  },
  {
    "name": "운암2동",
    "location": "광주광역시 북구 운신북길 95",
    "lat": "35.1725853915",
    "lng": "126.8785691187",
    "base_date": "2025-05-28"
  },
  {
    "name": "운암2동",
    "location": "광주광역시 북구 대자로 106번길 10-6",
    "lat": "35.1727593614",
    "lng": "126.8837482403",
    "base_date": "2025-05-28"
  },
  {
    "name": "운암2동",
    "location": "광주광역시 북구 북문대로 8번길 36",
    "lat": "35.1747948652",
    "lng": "126.8855318308",
    "base_date": "2025-05-28"
  },
  {
    "name": "운암2동",
    "location": "광주광역시 북구 북문대로33번길 11-15",
    "lat": "35.1740409144",
    "lng": "126.8819632966",
    "base_date": "2025-05-28"
  },
  {
    "name": "운암2동",
    "location": "광주광역시 북구 북문대로 20번길 31",
    "lat": "35.1754845341",
    "lng": "126.8840733159",
    "base_date": "2025-05-28"
  },
  {
    "name": "운암2동",
    "location": "광주광역시 북구 북문대로 33번길 11-1",
    "lat": "35.1744335265",
    "lng": "126.8815297864",
    "base_date": "2025-05-28"
  },
  {
    "name": "운암2동",
    "location": "광주광역시 북구 북문대로 33번길 지하27-11",
    "lat": "35.1739734735",
    "lng": "126.8814921676",
    "base_date": "2025-05-28"
  },
  {
    "name": "운암2동",
    "location": "광주광역시 북구 북문대로 33번길 52",
    "lat": "35.1728146834",
    "lng": "126.8809481515",
    "base_date": "2025-05-28"
  },
  {
    "name": "운암2동",
    "location": "광주광역시 북구 북문대로49번길 25",
    "lat": "35.1746438518",
    "lng": "126.8799021621",
    "base_date": "2025-05-28"
  },
  {
    "name": "운암2동",
    "location": "광주광역시 북구 북문대로 49번길 47",
    "lat": "35.1736516437",
    "lng": "126.8798279306",
    "base_date": "2025-05-28"
  },
  {
    "name": "운암2동",
    "location": "광주광역시 북구 북문대로20번길 9",
    "lat": "35.1746936593",
    "lng": "126.8833485814",
    "base_date": "2025-05-28"
  },
  {
    "name": "운암2동",
    "location": "광주광역시 북구 비엔날레로 3번길 54-12",
    "lat": "35.1754049559",
    "lng": "126.8832620205",
    "base_date": "2025-05-28"
  },
  {
    "name": "운암2동",
    "location": "광주광역시 북구 비엔날레로13번길 28-6",
    "lat": "35.1752957437",
    "lng": "126.8851078354",
    "base_date": "2025-05-28"
  },
  {
    "name": "운암2동",
    "location": "광주광역시 북구 비엔날레로 17-1",
    "lat": "35.1746650187",
    "lng": "126.8861154363",
    "base_date": "2025-05-28"
  },
  {
    "name": "운암2동",
    "location": "광주광역시 북구 서암대로 42번길 10-7",
    "lat": "35.1719776601",
    "lng": "126.8889293942",
    "base_date": "2025-05-28"
  },
  {
    "name": "운암2동",
    "location": "광주광역시 북구 운신남길 62",
    "lat": "35.1721479094",
    "lng": "126.8780481894",
    "base_date": "2025-05-28"
  },
  {
    "name": "운암2동",
    "location": "광주광역시 북구 운신남길 188",
    "lat": "35.171824132",
    "lng": "126.8849685479",
    "base_date": "2025-05-28"
  },
  {
    "name": "운암2동",
    "location": "광주광역시 북구 운신남길 226",
    "lat": "35.1715091104",
    "lng": "126.8869817455",
    "base_date": "2025-05-28"
  },
  {
    "name": "운암2동",
    "location": "광주광역시 북구 운신남길 244",
    "lat": "35.1713193883",
    "lng": "126.8879174224",
    "base_date": "2025-05-28"
  },
  {
    "name": "운암2동",
    "location": "광주광역시 북구 운신남길 272",
    "lat": "35.1709633428",
    "lng": "126.8893932543",
    "base_date": "2025-05-28"
  },
  {
    "name": "운암2동",
    "location": "광주광역시 북구 운신북길 115",
    "lat": "35.1725691056",
    "lng": "126.8797329827",
    "base_date": "2025-05-28"
  },
  {
    "name": "운암2동",
    "location": "광주광역시 북구 운신북길 221",
    "lat": "35.1720994569",
    "lng": "126.8855027004",
    "base_date": "2025-05-28"
  },
  {
    "name": "운암2동",
    "location": "광주광역시 북구 운신북길 243",
    "lat": "35.1719296864",
    "lng": "126.8866466913",
    "base_date": "2025-05-28"
  },
  {
    "name": "운암2동",
    "location": "광주광역시 북구 운용로 19-7",
    "lat": "35.1749840899",
    "lng": "126.8884713763",
    "base_date": "2025-05-28"
  },
  {
    "name": "운암2동",
    "location": "광주광역시 북구 운용로 27",
    "lat": "35.1753817925",
    "lng": "126.8895747613",
    "base_date": "2025-05-28"
  },
  {
    "name": "운암2동",
    "location": "광주광역시 북구 하남대로 793번길 13",
    "lat": "35.1719084406",
    "lng": "126.8794456368",
    "base_date": "2025-05-28"
  },
  {
    "name": "운암2동",
    "location": "광주광역시 북구 하남대로819번길 12-7",
    "lat": "35.1716620525",
    "lng": "126.883027718",
    "base_date": "2025-05-28"
  },
  {
    "name": "운암2동",
    "location": "광주광역시 북구 운신남길 166 ",
    "lat": "35.1719388002",
    "lng": "126.8837155307",
    "base_date": "2025-05-28"
  },
  {
    "name": "운암2동",
    "location": "광주광역시 북구 용봉택지로 7",
    "lat": "35.1787498512",
    "lng": "126.8872674285",
    "base_date": "2025-05-28"
  },
  {
    "name": "운암2동",
    "location": "광주광역시 북구 금호로 6번길 19",
    "lat": "35.1697740109",
    "lng": "126.8914182663",
    "base_date": "2025-05-28"
  },
  {
    "name": "운암2동",
    "location": "광주광역시 북구 무등로61번길 33",
    "lat": "35.1699915313",
    "lng": "126.8925350137",
    "base_date": "2025-05-28"
  },
  {
    "name": "운암2동",
    "location": "광주광역시 북구 운신남길 308-2",
    "lat": "35.1704445479",
    "lng": "126.8908163934",
    "base_date": "2025-05-28"
  },
  {
    "name": "운암3동",
    "location": "광주광역시 북구 북문대로 159번길 50",
    "lat": "35.1819385055",
    "lng": "126.8694819597",
    "base_date": "2025-05-28"
  },
  {
    "name": "일곡동",
    "location": "광주광역시 북구 일곡마을로 15-1",
    "lat": "35.2059022228",
    "lng": "126.8994173797",
    "base_date": "2025-05-28"
  },
  {
    "name": "일곡동",
    "location": "광주광역시 북구 일곡택지로 99번길20",
    "lat": "35.2107861886",
    "lng": "126.892322498",
    "base_date": "2025-05-28"
  },
  {
    "name": "일곡동",
    "location": "광주광역시 북구 일곡마을로 111번길 46-1",
    "lat": "35.2087788877",
    "lng": "126.8896699636",
    "base_date": "2025-05-28"
  },
  {
    "name": "일곡동",
    "location": "광주광역시 북구 일곡마을로 23",
    "lat": "35.2056875513",
    "lng": "126.8986075879",
    "base_date": "2025-05-28"
  },
  {
    "name": "일곡동",
    "location": "광주광역시 북구 일곡택지로 53번길 51",
    "lat": "35.2063512232",
    "lng": "126.8913173675",
    "base_date": "2025-05-28"
  },
  {
    "name": "일곡동",
    "location": "광주광역시 북구 일곡로 8",
    "lat": "35.2072233752",
    "lng": "126.8891090439",
    "base_date": "2025-05-28"
  },
  {
    "name": "일곡동",
    "location": "광주광역시 북구 일곡마을로 130",
    "lat": "35.2082590684",
    "lng": "126.8899955253",
    "base_date": "2025-05-28"
  },
  {
    "name": "일곡동",
    "location": "광주광역시 북구 일곡로 49번길 70",
    "lat": "35.2100506595",
    "lng": "126.8927168733",
    "base_date": "2025-05-28"
  },
  {
    "name": "임동",
    "location": "광주광역시 북구 경양로 7",
    "lat": "35.1617441621",
    "lng": "126.8935577074",
    "base_date": "2025-05-28"
  },
  {
    "name": "임동",
    "location": "광주광역시 북구 임동 31-16",
    "lat": "35.1632823382",
    "lng": "126.8981580154",
    "base_date": "2025-05-28"
  },
  {
    "name": "임동",
    "location": "광주광역시 북구 금남로13번길 6-1",
    "lat": "35.1601276674",
    "lng": "126.8981785515",
    "base_date": "2025-05-28"
  },
  {
    "name": "임동",
    "location": "광주광역시 북구 임동 92-55",
    "lat": "35.1603283406",
    "lng": "126.8984392758",
    "base_date": "2025-05-28"
  },
  {
    "name": "임동",
    "location": "광주광역시 북구 서림로100번길 20",
    "lat": "35.1623026078",
    "lng": "126.8964808482",
    "base_date": "2025-05-28"
  },
  {
    "name": "임동",
    "location": "광주광역시 북구 임동 224-11",
    "lat": "35.1616474368",
    "lng": "126.897784889",
    "base_date": "2025-05-28"
  },
  {
    "name": "임동",
    "location": "광주광역시 북구 임동 94-68",
    "lat": "35.1620948838",
    "lng": "126.897427617",
    "base_date": "2025-05-28"
  },
  {
    "name": "임동",
    "location": "광주광역시 북구 임동로 14",
    "lat": "35.1615230883",
    "lng": "126.8969962722",
    "base_date": "2025-05-28"
  },
  {
    "name": "임동",
    "location": "광주광역시 북구 임유길 15",
    "lat": "35.1578566108",
    "lng": "126.9022043234",
    "base_date": "2025-05-28"
  },
  {
    "name": "임동",
    "location": "광주광역시 북구 천변우로 79번길 87",
    "lat": "35.1663572775",
    "lng": "126.8913657847",
    "base_date": "2025-05-28"
  },
  {
    "name": "임동",
    "location": "광주광역시 북구 경양로 63번길 22",
    "lat": "35.1640895092",
    "lng": "126.8996948474",
    "base_date": "2025-05-28"
  },
  {
    "name": "임동",
    "location": "광주광역시 북구 서림로 81번길 18",
    "lat": "35.1649832932",
    "lng": "126.8968727778",
    "base_date": "2025-05-28"
  },
  {
    "name": "임동",
    "location": "광주광역시 북구 무등로88번길 24-2",
    "lat": "35.1673653187",
    "lng": "126.893174313",
    "base_date": "2025-05-28"
  },
  {
    "name": "임동",
    "location": "광주광역시 북구 무등로 114번길 37",
    "lat": "35.1658028809",
    "lng": "126.8958079466",
    "base_date": "2025-05-28"
  },
  {
    "name": "임동",
    "location": "광주광역시 북구 신임로 31번길 79",
    "lat": "35.1672855016",
    "lng": "126.8943060293",
    "base_date": "2025-05-28"
  },
  {
    "name": "임동",
    "location": "광주광역시 북구 자동차로 47번길 60",
    "lat": "35.1641188311",
    "lng": "126.8979601453",
    "base_date": "2025-05-28"
  },
  {
    "name": "임동",
    "location": "광주광역시 북구 중흥로 32",
    "lat": "35.1651458881",
    "lng": "126.8979024011",
    "base_date": "2025-05-28"
  },
  {
    "name": "임동",
    "location": "광주광역시 북구 중흥로 40번길 2",
    "lat": "35.1648554445",
    "lng": "126.8986746854",
    "base_date": "2025-05-28"
  },
  {
    "name": "중앙동",
    "location": "광주광역시 북구 경열로 211번길 22",
    "lat": "35.1586370958",
    "lng": "126.9047841636",
    "base_date": "2025-05-28"
  },
  {
    "name": "중앙동",
    "location": "광주광역시 북구 경열로233번길 23-3",
    "lat": "35.1602483076",
    "lng": "126.9055309234",
    "base_date": "2025-05-28"
  },
  {
    "name": "중흥1동",
    "location": "광주광역시 북구 독립로 367번길 60-1",
    "lat": "35.164256136",
    "lng": "126.9121730662",
    "base_date": "2025-05-28"
  },
  {
    "name": "중흥1동",
    "location": "광주광역시 북구 독립로 349번길 34",
    "lat": "35.1626432728",
    "lng": "126.9132482529",
    "base_date": "2025-05-28"
  },
  {
    "name": "중흥1동",
    "location": "광주광역시 북구 중흥로 173번길 17",
    "lat": "35.1622451355",
    "lng": "126.9130779195",
    "base_date": "2025-05-28"
  },
  {
    "name": "중흥1동",
    "location": "광주광역시 북구 중흥로 183번길 7",
    "lat": "35.1616835209",
    "lng": "126.9137768895",
    "base_date": "2025-05-28"
  },
  {
    "name": "중흥1동",
    "location": "광주광역시 북구 경양로 197번길 5",
    "lat": "35.1598128535",
    "lng": "126.9132419464",
    "base_date": "2025-05-28"
  },
  {
    "name": "중흥1동",
    "location": "광주광역시 북구 중가로 113번길 12",
    "lat": "35.1582808341",
    "lng": "126.9122744678",
    "base_date": "2025-05-28"
  },
  {
    "name": "중흥동",
    "location": "광주광역시 북구 서암대로 223번길 11",
    "lat": "35.1682435085",
    "lng": "126.9085195142",
    "base_date": "2025-05-28"
  },
  {
    "name": "중흥동",
    "location": "광주광역시 북구 우치로 1번길 6-10",
    "lat": "35.1684265962",
    "lng": "126.9098343376",
    "base_date": "2025-05-28"
  },
  {
    "name": "중흥동",
    "location": "광주광역시 북구 용봉로 90번길 16",
    "lat": "35.1720370248",
    "lng": "126.9073711141",
    "base_date": "2025-05-28"
  },
  {
    "name": "중흥동",
    "location": "광주광역시 북구 용봉로 90번길 62",
    "lat": "35.1714635147",
    "lng": "126.9097499448",
    "base_date": "2025-05-28"
  },
  {
    "name": "중흥동",
    "location": "광주광역시 북구 용봉로 138번길 24",
    "lat": "35.172232619",
    "lng": "126.911078975",
    "base_date": "2025-05-28"
  },
  {
    "name": "중흥동",
    "location": "광주광역시 북구 용봉로 138번길 73",
    "lat": "35.1700096548",
    "lng": "126.9104609049",
    "base_date": "2025-05-28"
  },
  {
    "name": "중흥동",
    "location": "광주광역시 북구 용봉로 126번길 64-5",
    "lat": "35.1700589317",
    "lng": "126.9089234064",
    "base_date": "2025-05-28"
  },
  {
    "name": "중흥동",
    "location": "광주광역시 북구 우치로 40번길 3",
    "lat": "35.1711768901",
    "lng": "126.9119602624",
    "base_date": "2025-05-28"
  },
  {
    "name": "중흥동",
    "location": "광주광역시 북구 신흥로 14",
    "lat": "35.169189774",
    "lng": "126.9074969721",
    "base_date": "2025-05-28"
  },
  {
    "name": "중흥동",
    "location": "광주광역시 북구 서암대로208번길 30",
    "lat": "35.1677874593",
    "lng": "126.9049251002",
    "base_date": "2025-05-28"
  },
  {
    "name": "중흥동",
    "location": "광주광역시 북구 우치로 64번길  7",
    "lat": "35.1730150516",
    "lng": "126.9128908781",
    "base_date": "2025-05-28"
  },
  {
    "name": "중흥동",
    "location": "광주광역시 북구 우치로 64번길  7",
    "lat": "35.1730150516",
    "lng": "126.9128908781",
    "base_date": "2025-05-28"
  },
  {
    "name": "중흥동",
    "location": "광주광역시 북구 우치로 2번길 8",
    "lat": "35.167640668",
    "lng": "126.9106461427",
    "base_date": "2025-05-28"
  },
  {
    "name": "중흥동",
    "location": "광주광역시 북구 우치로 2번길 58",
    "lat": "35.1670239932",
    "lng": "126.9132449367",
    "base_date": "2025-05-28"
  },
  {
    "name": "중흥동",
    "location": "광주광역시 북구 서양로 93번길 53-1",
    "lat": "35.1713588198",
    "lng": "126.9121444615",
    "base_date": "2025-05-28"
  },
  {
    "name": "중흥동",
    "location": "광주광역시 북구 우치로 1번길 24-16",
    "lat": "35.1689603831",
    "lng": "126.908048901",
    "base_date": "2025-05-28"
  },
  {
    "name": "중흥동",
    "location": "광주광역시 북구 용봉로 138번길 57",
    "lat": "35.170706795",
    "lng": "126.9108028983",
    "base_date": "2025-05-28"
  },
  {
    "name": "중흥동",
    "location": "광주광역시 북구 용봉로126번길18-15",
    "lat": "35.1721091795",
    "lng": "126.9093790722",
    "base_date": "2025-05-28"
  },
  {
    "name": "중흥동",
    "location": "광주광역시 북구 서방로 39번길 56",
    "lat": "35.1753173216",
    "lng": "126.9183493489",
    "base_date": "2025-05-28"
  },
  {
    "name": "중흥동",
    "location": "광주광역시 북구 서방로 40번길 6",
    "lat": "35.1726026053",
    "lng": "126.917166722",
    "base_date": "2025-05-28"
  },
  {
    "name": "중흥동",
    "location": "광주광역시 북구 와우로 20",
    "lat": "35.1704649996",
    "lng": "126.917019385",
    "base_date": "2025-05-28"
  },
  {
    "name": "중흥동",
    "location": "광주광역시 북구 당뫼로 8번길 11",
    "lat": "35.1669964931",
    "lng": "126.9142003042",
    "base_date": "2025-05-28"
  },
  {
    "name": "중흥동",
    "location": "광주광역시 북구 당뫼로 8번길 37",
    "lat": "35.1666118096",
    "lng": "126.9155336261",
    "base_date": "2025-05-28"
  },
  {
    "name": "중흥동",
    "location": "광주광역시 북구 효죽로 9번길 13",
    "lat": "35.1703036443",
    "lng": "126.9161103905",
    "base_date": "2025-05-28"
  },
  {
    "name": "중흥동",
    "location": "광주광역시 북구 와우로 2-1",
    "lat": "35.1710275993",
    "lng": "126.9154201857",
    "base_date": "2025-05-28"
  },
  {
    "name": "중흥동",
    "location": "광주광역시 북구 서방로 19번길 32-5",
    "lat": "35.1747376542",
    "lng": "126.9160186854",
    "base_date": "2025-05-28"
  },
  {
    "name": "풍향동",
    "location": "광주광역시 북구 참판로 66-1",
    "lat": "35.1639520732",
    "lng": "126.9317155234",
    "base_date": "2025-05-28"
  },
  {
    "name": "풍향동",
    "location": "광주광역시 북구 밤실로 191번길 52",
    "lat": "35.1628941837",
    "lng": "126.9313451602",
    "base_date": "2025-05-28"
  },
  {
    "name": "풍향동",
    "location": "광주광역시 북구 풍동길 25번길 20",
    "lat": "35.1668570023",
    "lng": "126.9228191192",
    "base_date": "2025-05-28"
  },
  {
    "name": "풍향동",
    "location": "광주광역시 북구 풍동길 25번길 2",
    "lat": "35.1660702531",
    "lng": "126.9225331029",
    "base_date": "2025-05-28"
  },
  {
    "name": "풍향동",
    "location": "광주광역시 북구 풍동길 25번길 2",
    "lat": "35.1660702531",
    "lng": "126.9225331029",
    "base_date": "2025-05-28"
  },
  {
    "name": "풍향동",
    "location": "광주광역시 북구 필문대로 29번길 14",
    "lat": "35.164740933",
    "lng": "126.9230665196",
    "base_date": "2025-05-28"
  },
  {
    "name": "풍향동",
    "location": "광주광역시 북구 두방길 34-2",
    "lat": "35.1670565379",
    "lng": "126.9249899486",
    "base_date": "2025-05-28"
  },
  {
    "name": "풍향동",
    "location": "광주광역시 북구 두방길 50-2",
    "lat": "35.1670434958",
    "lng": "126.9265708163",
    "base_date": "2025-05-28"
  }
]