[
  {
    "name": "원무역",
    "location": "전라남도 영광군 물무로2길 79",
    "lat": "35.278353",
    "lng": "126.512297",
    "base_date": "2025-12-03"
  },
  {
    "name": "설치업체 알수없음(안내판 부착)",
    "location": "전라남도 영광군 중앙로 215 29",
    "lat": "35.263148",
    "lng": "126.511319",
    "base_date": "2025-12-03"
  },
  {
    "name": "제일무역",
    "location": "전라남도 영광군 중앙로 241",
    "lat": "35.280315",
    "lng": "126.512799",
    "base_date": "2025-12-03"
  },
  {
    "name": "원무역",
    "location": "전라남도 영광군 물무로2길 3",
    "lat": "35.278145",
    "lng": "126.506385",
    "base_date": "2025-12-03"
  },
  {
    "name": "원무역",
    "location": "전라남도 영광군 물무로 82",
    "lat": "35.277064",
    "lng": "126.508828",
    "base_date": "2025-12-03"
  },
  {
    "name": "원무역",
    "location": "전라남도 영광군 백산길 16-5",
    "lat": "35.277636",
    "lng": "126.503221",
    "base_date": "2025-12-03"
  },
  {
    "name": "원무역",
    "location": "전라남도 영광군 신남로 240",
    "lat": "35.275534",
    "lng": "126.508213",
    "base_date": "2025-12-03"
  },
  {
    "name": "원무역",
    "location": "전라남도 영광군 천년로 1508 -20",
    "lat": "35.276192",
    "lng": "126.506412",
    "base_date": "2025-12-03"
  },
  {
    "name": "원무역",
    "location": "전라남도 영광군 남천리 133 2",
    "lat": "35.275272",
    "lng": "126.507686",
    "base_date": "2025-12-03"
  },
  {
    "name": "원무역",
    "location": "전라남도 영광군 쳔년로13길 18 10",
    "lat": "35.274384",
    "lng": "126.506618",
    "base_date": "2025-12-03"
  },
  {
    "name": "원무역",
    "location": "전라남도 영광군 물무로 127 5",
    "lat": "35.276847",
    "lng": "126.514332",
    "base_date": "2025-12-03"
  },
  {
    "name": "원무역",
    "location": "전라남도 영광군 물무로 141",
    "lat": "35.277144",
    "lng": "126.514853",
    "base_date": "2025-12-03"
  },
  {
    "name": "원무역",
    "location": "전라남도 영광군 중앙로 148 13",
    "lat": "35.272428",
    "lng": "126.512753",
    "base_date": "2025-12-03"
  },
  {
    "name": "원무역",
    "location": "전라남도 영광군 중앙로3길 19",
    "lat": "35.273802",
    "lng": "126.513829",
    "base_date": "2025-12-03"
  },
  {
    "name": "원무역",
    "location": "전라남도 영광군 물무로6길 9",
    "lat": "35.273595",
    "lng": "126.51492",
    "base_date": "2025-12-03"
  },
  {
    "name": "설치업체 알수없음(안내판 부착)",
    "location": "전라남도 영광군 중앙로4길 25 3",
    "lat": "35.275403",
    "lng": "126.51463",
    "base_date": "2025-12-03"
  },
  {
    "name": "원무역",
    "location": "전라남도 영광군 중앙로5길 16 23",
    "lat": "35.274695",
    "lng": "126.515176",
    "base_date": "2025-12-03"
  },
  {
    "name": "원무역",
    "location": "전라남도 영광군 중앙로4길 16 1",
    "lat": "35.275242",
    "lng": "126.513586",
    "base_date": "2025-12-03"
  },
  {
    "name": "원무역",
    "location": "전라남도 영광군 중앙로5길 17",
    "lat": "35.276087",
    "lng": "126.513804",
    "base_date": "2025-12-03"
  },
  {
    "name": "제일무역",
    "location": "전라남도 영광군 중앙로4길 35",
    "lat": "35.275031",
    "lng": "126.515571",
    "base_date": "2025-12-03"
  },
  {
    "name": "설치업체 알수없음(안내판 미부착)",
    "location": "전라남도 영광군 중앙로5길 7",
    "lat": "35.276171",
    "lng": "126.51286",
    "base_date": "2025-12-03"
  },
  {
    "name": "태산자원",
    "location": "전라남도 영광군 물무로 132",
    "lat": "35.276363",
    "lng": "126.514407",
    "base_date": "2025-12-03"
  },
  {
    "name": "제일무역",
    "location": "전라남도 영광군 향교길 7 2",
    "lat": "35.274725",
    "lng": "126.517259",
    "base_date": "2025-12-03"
  },
  {
    "name": "전남영광지역자활센터",
    "location": "전라남도 영광군 중앙로2길 12 16",
    "lat": "35.271241",
    "lng": "126.514416",
    "base_date": "2025-12-03"
  },
  {
    "name": "제일무역",
    "location": "전라남도 영광군 물무로 167",
    "lat": "35.275551",
    "lng": "126.51708",
    "base_date": "2025-12-03"
  },
  {
    "name": "제일무역",
    "location": "전라남도 영광군 물무로 168 3",
    "lat": "35.275342",
    "lng": "126.516447",
    "base_date": "2025-12-03"
  },
  {
    "name": "원무역",
    "location": "전라남도 영광군 중앙로5길 16 16",
    "lat": "35.274613",
    "lng": "126.513973",
    "base_date": "2025-12-03"
  },
  {
    "name": "설치업체 알수없음(안내판 미부착)",
    "location": "전라남도 영광군 교촌리 239",
    "lat": "35.274314",
    "lng": "126.51777",
    "base_date": "2025-12-03"
  },
  {
    "name": "제일무역",
    "location": "전라남도 영광군 향교길1길 9",
    "lat": "35.275144",
    "lng": "126.518289",
    "base_date": "2025-12-03"
  },
  {
    "name": "제일무역",
    "location": "전라남도 영광군 물무로4길 27",
    "lat": "35.273662",
    "lng": "126.518477",
    "base_date": "2025-12-03"
  },
  {
    "name": "설치업체 알수없음(안내판 부착)",
    "location": "전라남도 영광군 물무로6길 4",
    "lat": "35.273362",
    "lng": "126.51538",
    "base_date": "2025-12-03"
  },
  {
    "name": "전남영광지역자활센터",
    "location": "전라남도 영광군 물무로4길 10",
    "lat": "35.274141",
    "lng": "126.517273",
    "base_date": "2025-12-03"
  },
  {
    "name": "원무역",
    "location": "전라남도 영광군 단신길1길 9 12",
    "lat": "35.279587",
    "lng": "126.497381",
    "base_date": "2025-12-03"
  },
  {
    "name": "원무역",
    "location": "전라남도 영광군 백산길 15 9",
    "lat": "35.27747",
    "lng": "126.50237",
    "base_date": "2025-12-03"
  },
  {
    "name": "원무역",
    "location": "전라남도 영광군 옥당로1길 16 2",
    "lat": "35.282492",
    "lng": "126.498468",
    "base_date": "2025-12-03"
  },
  {
    "name": "원무역",
    "location": "전라남도 영광군 천년로11길 64",
    "lat": "35.277938",
    "lng": "126.499067",
    "base_date": "2025-12-03"
  },
  {
    "name": "설치업체 알수없음(안내판 부착)",
    "location": "전라남도 영광군 대하길4길 21",
    "lat": "35.27673",
    "lng": "126.498536",
    "base_date": "2025-12-03"
  },
  {
    "name": "설치업체 알수없음(안내판 부착)",
    "location": "전라남도 영광군 천년로12길 50",
    "lat": "35.277103",
    "lng": "126..500026",
    "base_date": "2025-12-03"
  },
  {
    "name": "설치업체 알수없음(안내판 부착)",
    "location": "전라남도 영광군 대하길 72 19",
    "lat": "35.277604",
    "lng": "126.497125",
    "base_date": "2025-12-03"
  },
  {
    "name": "제일무역",
    "location": "전라남도 영광군 대하길 72 35",
    "lat": "35.277762",
    "lng": "126.49777",
    "base_date": "2025-12-03"
  },
  {
    "name": "원무역",
    "location": "전라남도 영광군 옥당로 106 5",
    "lat": "35.272758",
    "lng": "126.504019",
    "base_date": "2025-12-03"
  },
  {
    "name": "원무역",
    "location": "전라남도 영광군 옥당로 92",
    "lat": "35.271698",
    "lng": "126.505267",
    "base_date": "2025-12-03"
  },
  {
    "name": "원무역",
    "location": "전라남도 영광군 옥당로 94",
    "lat": "35.272111",
    "lng": "126.504889",
    "base_date": "2025-12-03"
  },
  {
    "name": "원무역",
    "location": "전라남도 영광군 중앙로 105",
    "lat": "35.268736",
    "lng": "126.5109",
    "base_date": "2025-12-03"
  },
  {
    "name": "전남영광지역자활센터",
    "location": "전라남도 영광군 천년로9길 121",
    "lat": "35.268026",
    "lng": "126.50599",
    "base_date": "2025-12-03"
  },
  {
    "name": "원무역",
    "location": "전라남도 영광군 함영로8길 93",
    "lat": "35.261504",
    "lng": "126.506296",
    "base_date": "2025-12-03"
  },
  {
    "name": "전남영광지역자활센터",
    "location": "전라남도 영광군 단신길 46",
    "lat": "35.278516",
    "lng": "126.495882",
    "base_date": "2025-12-03"
  },
  {
    "name": "원무역",
    "location": "전라남도 영광군 대하길2길 15",
    "lat": "35.274422",
    "lng": "126.498912",
    "base_date": "2025-12-03"
  },
  {
    "name": "원무역",
    "location": "전라남도 영광군 대하길2길 35",
    "lat": "35.27469",
    "lng": "126.500863",
    "base_date": "2025-12-03"
  },
  {
    "name": "원무역",
    "location": "전라남도 영광군 대하길2길 6",
    "lat": "35.274047",
    "lng": "126.497995",
    "base_date": "2025-12-03"
  },
  {
    "name": "원무역",
    "location": "전라남도 영광군 대하길3길 9 7",
    "lat": "35.274769",
    "lng": "126.498054",
    "base_date": "2025-12-03"
  },
  {
    "name": "원무역",
    "location": "전라남도 영광군 신남로1길 70",
    "lat": "35.274694",
    "lng": "126.495335",
    "base_date": "2025-12-03"
  },
  {
    "name": "원무역",
    "location": "전라남도 영광군 대하길1길 1",
    "lat": "35.272554",
    "lng": "126.498553",
    "base_date": "2025-12-03"
  },
  {
    "name": "원무역",
    "location": "전라남도 영광군 대하길 47",
    "lat": "35.275328",
    "lng": "126.496466",
    "base_date": "2025-12-03"
  }
]