[
  {
    "name": "장성읍 ",
    "location": "전라남도 장성군 장성읍 대창3길7",
    "lat": "35.2951719",
    "lng": "126.7816625",
    "base_date": "2026-02-26"
  },
  {
    "name": "장성읍 ",
    "location": "전라남도 장성군 장성읍 제봉로 22",
    "lat": "35.2948582",
    "lng": "126.7827337",
    "base_date": "2026-02-26"
  },
  {
    "name": "장성읍 ",
    "location": "전라남도 장성군 장성읍 삼가1길 38",
    "lat": "35.2951558",
    "lng": "126.7836417",
    "base_date": "2026-02-26"
  },
  {
    "name": "장성읍 ",
    "location": "전라남도 장성군 장성읍 제봉로 41",
    "lat": "35.2961056",
    "lng": "126.7839793",
    "base_date": "2026-02-26"
  },
  {
    "name": "장성읍 ",
    "location": "전라남도 장성군 장성읍 대창1길 15",
    "lat": "35.2958744",
    "lng": "126.7824986",
    "base_date": "2026-02-26"
  },
  {
    "name": "장성읍 ",
    "location": "전라남도 장성군 장성읍 대창1길 7",
    "lat": "35.2959208",
    "lng": "126.7817393",
    "base_date": "2026-02-26"
  },
  {
    "name": "장성읍 ",
    "location": "전라남도 장성군 장성읍 대창2길 5",
    "lat": "35.2970375",
    "lng": "126.7816456",
    "base_date": "2026-02-26"
  },
  {
    "name": "장성읍 ",
    "location": "전라남도 장성군 장성읍 충무길 21",
    "lat": "35.2991924",
    "lng": "126.7826028",
    "base_date": "2026-02-26"
  },
  {
    "name": "장성읍 ",
    "location": "전라남도 장성군 장성읍 매화7길 12",
    "lat": "35.2994038",
    "lng": "126.783908",
    "base_date": "2026-02-26"
  },
  {
    "name": "장성읍 ",
    "location": "전라남도 장성군 장성읍 충무5길 17",
    "lat": "35.2996114",
    "lng": "126.7848284",
    "base_date": "2026-02-26"
  },
  {
    "name": "장성읍 ",
    "location": "전라남도 장성군 장성읍 충무4길 13",
    "lat": "35.2986065",
    "lng": "126.7843927",
    "base_date": "2026-02-26"
  },
  {
    "name": "장성읍 ",
    "location": "전라남도 장성군 장성읍 충무5길 24",
    "lat": "35.2990515",
    "lng": "126.7847269",
    "base_date": "2026-02-26"
  },
  {
    "name": "장성읍 ",
    "location": "전라남도 장성군 장성읍 매화8길 1",
    "lat": "35.3001095",
    "lng": "126.786866",
    "base_date": "2026-02-26"
  },
  {
    "name": "장성읍 ",
    "location": "전라남도 장성군 장성읍 매화8길 11",
    "lat": "35.2994547",
    "lng": "126.7871836",
    "base_date": "2026-02-26"
  },
  {
    "name": "장성읍 ",
    "location": "전라남도 장성군 장성읍 제봉로 102",
    "lat": "35.300785",
    "lng": "126.7877135",
    "base_date": "2026-02-26"
  },
  {
    "name": "장성읍 ",
    "location": "전라남도 장성군 장성읍 매화7길 46",
    "lat": "35.3016288",
    "lng": "126.7864695",
    "base_date": "2026-02-26"
  },
  {
    "name": "장성읍 ",
    "location": "전라남도 장성군 장성읍 매화4길 13",
    "lat": "35.3023695",
    "lng": "126.7866234",
    "base_date": "2026-02-26"
  },
  {
    "name": "장성읍 ",
    "location": "전라남도 장성군 장성읍 매화7길 70",
    "lat": "35.3032663",
    "lng": "126.7870718",
    "base_date": "2026-02-26"
  },
  {
    "name": "장성읍 ",
    "location": "전라남도 장성군 장성읍 매화7길 60",
    "lat": "35.3025239",
    "lng": "126.7876436",
    "base_date": "2026-02-26"
  },
  {
    "name": "장성읍 ",
    "location": "전라남도 장성군 장성읍 매화7길 60-1",
    "lat": "35.3028135",
    "lng": "126.7877602",
    "base_date": "2026-02-26"
  },
  {
    "name": "장성읍 ",
    "location": "전라남도 장성군 장성읍 매화2길 17",
    "lat": "35.3008423",
    "lng": "126.7853378",
    "base_date": "2026-02-26"
  },
  {
    "name": "장성읍 ",
    "location": "전라남도 장성군 장성읍 매화6길 26",
    "lat": "35.3008146",
    "lng": "126.7843707",
    "base_date": "2026-02-26"
  },
  {
    "name": "장성읍 ",
    "location": "전라남도 장성군 장성읍 매화6길 13",
    "lat": "35.3002981",
    "lng": "126.7832019",
    "base_date": "2026-02-26"
  },
  {
    "name": "장성읍 ",
    "location": "전라남도 장성군 장성읍 청운3길 10-14",
    "lat": "35.3030208",
    "lng": "126.7841617",
    "base_date": "2026-02-26"
  },
  {
    "name": "장성읍 ",
    "location": "전라남도 장성군 장성읍 청운3길 10-2",
    "lat": "35.302683",
    "lng": "126.783738",
    "base_date": "2026-02-26"
  },
  {
    "name": "장성읍 ",
    "location": "전라남도 장성군 장성읍 청운3길 13",
    "lat": "35.302821",
    "lng": "126.7831202",
    "base_date": "2026-02-26"
  },
  {
    "name": "장성읍 ",
    "location": "전라남도 장성군 장성읍 청운1길 16",
    "lat": "35.3012048",
    "lng": "126.7819459",
    "base_date": "2026-02-26"
  },
  {
    "name": "장성읍 ",
    "location": "전라남도 장성군 장성읍 역전로105 ",
    "lat": "35.301695",
    "lng": "126.7804982",
    "base_date": "2026-02-26"
  },
  {
    "name": "장성읍 ",
    "location": "전라남도 장성군 장성읍 청운길 23",
    "lat": "35.3018922",
    "lng": "126.7812869",
    "base_date": "2026-02-26"
  },
  {
    "name": "장성읍 ",
    "location": "전라남도 장성군 장성읍 청운길 35",
    "lat": "35.3030011",
    "lng": "126.7813143",
    "base_date": "2026-02-26"
  },
  {
    "name": "장성읍 ",
    "location": "전라남도 장성군 장성읍 청운길 58",
    "lat": "35.3050562",
    "lng": "126.7822071",
    "base_date": "2026-02-26"
  },
  {
    "name": "장성읍 ",
    "location": "전라남도 장성군 장성읍 청운11길 19",
    "lat": "35.3049982",
    "lng": "126.7827137",
    "base_date": "2026-02-26"
  },
  {
    "name": "장성읍 ",
    "location": "전라남도 장성군 장성읍 역전로 161",
    "lat": "35.3058327",
    "lng": "126.7823384",
    "base_date": "2026-02-26"
  },
  {
    "name": "장성읍 ",
    "location": "전라남도 장성군 장성읍 청운4길 26",
    "lat": "35.3033925",
    "lng": "126.7825839",
    "base_date": "2026-02-26"
  },
  {
    "name": "장성읍 ",
    "location": "전라남도 장성군 장성읍 청운11길 8-7",
    "lat": "35.3039005",
    "lng": "126.7838077",
    "base_date": "2026-02-26"
  },
  {
    "name": "장성읍 ",
    "location": "전라남도 장성군 장성읍 청운11길 8-8",
    "lat": "35.3039003",
    "lng": "126.7837857",
    "base_date": "2026-02-26"
  },
  {
    "name": "장성읍 ",
    "location": "전라남도 장성군 장성읍 청운7길 10",
    "lat": "35.3044158",
    "lng": "126.7857462",
    "base_date": "2026-02-26"
  },
  {
    "name": "장성읍 ",
    "location": "전라남도 장성군 장성읍 청운9길 7",
    "lat": "35.3048061",
    "lng": "126.7851246",
    "base_date": "2026-02-26"
  },
  {
    "name": "장성읍 ",
    "location": "전라남도 장성군 장성읍 청운12길 13",
    "lat": "35.3064292",
    "lng": "126.7851883",
    "base_date": "2026-02-26"
  },
  {
    "name": "장성읍 ",
    "location": "전라남도 장성군 장성읍 청운12길 3",
    "lat": "35.3056072",
    "lng": "126.7850137",
    "base_date": "2026-02-26"
  },
  {
    "name": "장성읍 ",
    "location": "전라남도 장성군 장성읍 오동촌길 16",
    "lat": "35.3037828",
    "lng": "126.7909454",
    "base_date": "2026-02-26"
  },
  {
    "name": "장성읍 ",
    "location": "전라남도 장성군 장성읍 오동촌길 19",
    "lat": "35.3035763",
    "lng": "126.7928287",
    "base_date": "2026-02-26"
  },
  {
    "name": "장성읍 ",
    "location": "전라남도 장성군 장성읍 방울샘길 46",
    "lat": "35.3039532",
    "lng": "126.7926581",
    "base_date": "2026-02-26"
  },
  {
    "name": "장성읍 ",
    "location": "전라남도 장성군 장성읍 방울샘길 66",
    "lat": "35.304085",
    "lng": "126.7959328",
    "base_date": "2026-02-26"
  },
  {
    "name": "장성읍 ",
    "location": "전라남도 장성군 장성읍 구산제길 19",
    "lat": "35.310428",
    "lng": "126.7947831",
    "base_date": "2026-02-26"
  },
  {
    "name": "장성읍 ",
    "location": "전라남도 장성군 장성읍 성산2길 12-1",
    "lat": "35.3253948",
    "lng": "126.8043055",
    "base_date": "2026-02-26"
  },
  {
    "name": "장성읍 ",
    "location": "전라남도 장성군 장성읍 수산2길5-11",
    "lat": "35.3234953",
    "lng": "126.7999892",
    "base_date": "2026-02-26"
  },
  {
    "name": "장성읍 ",
    "location": "전라남도 장성군 장성읍 수산길 14",
    "lat": "35.3221808",
    "lng": "126.7992278",
    "base_date": "2026-02-26"
  },
  {
    "name": "장성읍 ",
    "location": "전라남도 장성군 장성읍 내기길 3",
    "lat": "35.3039429",
    "lng": "126.7737244",
    "base_date": "2026-02-26"
  },
  {
    "name": "장성읍 ",
    "location": "전라남도 장성군 장성읍 내기길34-30",
    "lat": "35.3066659",
    "lng": "126.772034",
    "base_date": "2026-02-26"
  },
  {
    "name": "장성읍 ",
    "location": "전라남도 장성군 장성읍 영천로 48",
    "lat": "35.2903433",
    "lng": "126.7819218",
    "base_date": "2026-02-26"
  },
  {
    "name": "진원면 ",
    "location": "전라남도 장성군 진원면 율곡리 330-1",
    "lat": "35.2680814",
    "lng": "126.8074122",
    "base_date": "2026-02-26"
  },
  {
    "name": "진원면 ",
    "location": "전라남도 장성군 진원면 노사로 467",
    "lat": "35.2741829",
    "lng": "126.8304155",
    "base_date": "2026-02-26"
  },
  {
    "name": "진원면 ",
    "location": "전라남도 장성군 진원면 덕주1길 29",
    "lat": "35.2757683",
    "lng": "126.8321843",
    "base_date": "2026-02-26"
  },
  {
    "name": "진원면 ",
    "location": "전라남도 장성군 진원면 선적리 121",
    "lat": "35.2737002",
    "lng": "126.8327086",
    "base_date": "2026-02-26"
  },
  {
    "name": "진원면 ",
    "location": "전라남도 장성군 진원면 진원리 218-1",
    "lat": "35.273175",
    "lng": "126.8446636",
    "base_date": "2026-02-26"
  },
  {
    "name": "진원면 ",
    "location": "전라남도 장성군 진원면 불태1로 253",
    "lat": "35.2561713",
    "lng": "126.8451796",
    "base_date": "2026-02-26"
  },
  {
    "name": "진원면 ",
    "location": "전라남도 장성군 진원면 산동리 533-24",
    "lat": "35.2471603",
    "lng": "126.8482961",
    "base_date": "2026-02-26"
  },
  {
    "name": "진원면 ",
    "location": "전라남도 장성군 진원면 학림리 589",
    "lat": "35.2401611",
    "lng": "126.859228",
    "base_date": "2026-02-26"
  },
  {
    "name": "진원면 ",
    "location": "전라남도 장성군 진원면 노사로 875",
    "lat": "35.271028",
    "lng": "126.8625433",
    "base_date": "2026-02-26"
  },
  {
    "name": "진원면 ",
    "location": "전라남도 장성군 진원면 상림리 568-6",
    "lat": "35.2732453",
    "lng": "126.8625453",
    "base_date": "2026-02-26"
  },
  {
    "name": "진원면 ",
    "location": "전라남도 장성군 진원면 선적리 520",
    "lat": "35.2715448",
    "lng": "126.8279255",
    "base_date": "2026-02-26"
  },
  {
    "name": "진원면 ",
    "location": "전라남도 장성군 진원면 남매길 41",
    "lat": "35.2700402",
    "lng": "126.8289254",
    "base_date": "2026-02-26"
  },
  {
    "name": "진원면 ",
    "location": "전라남도 장성군 진원면 남매길 5-4",
    "lat": "35.2673175",
    "lng": "126.8269973",
    "base_date": "2026-02-26"
  },
  {
    "name": "진원면 ",
    "location": "전라남도 장성군 진원면 선적리 765-157",
    "lat": "35.2654834",
    "lng": "126.8256279",
    "base_date": "2026-02-26"
  },
  {
    "name": "진원면 ",
    "location": "전라남도 장성군 진원면 산정리 70-1",
    "lat": "35.2634868",
    "lng": "126.8214476",
    "base_date": "2026-02-26"
  },
  {
    "name": "남면 ",
    "location": "전라남도 장성군 남면 월곡리 875-1",
    "lat": "35.2467793",
    "lng": "126.8236782",
    "base_date": "2026-02-26"
  },
  {
    "name": "남면 ",
    "location": "전라남도 장성군 남면 시목1길 13",
    "lat": "35.2576998",
    "lng": "126.8076193",
    "base_date": "2026-02-26"
  },
  {
    "name": "남면 ",
    "location": "전라남도 장성군 남면 삼태리 569",
    "lat": "35.2398616",
    "lng": "126.828821",
    "base_date": "2026-02-26"
  },
  {
    "name": "남면 ",
    "location": "전라남도 장성군 남면 분향리 407-7",
    "lat": "35.2484122",
    "lng": "126.8099968",
    "base_date": "2026-02-26"
  },
  {
    "name": "남면 ",
    "location": "전라남도 장성군 남면 분향리 1408",
    "lat": "35.2376395",
    "lng": "126.8061881",
    "base_date": "2026-02-26"
  },
  {
    "name": "남면 ",
    "location": "전라남도 장성군 남면 황토단감로 350",
    "lat": "35.2443249",
    "lng": "126.7815007",
    "base_date": "2026-02-26"
  },
  {
    "name": "남면 ",
    "location": "전라남도 장성군 남면 청양길 16",
    "lat": "35.2453286",
    "lng": "126.7773544",
    "base_date": "2026-02-26"
  },
  {
    "name": "남면 ",
    "location": "전라남도 장성군 남면 마령로 2",
    "lat": "35.2502612",
    "lng": "126.7713359",
    "base_date": "2026-02-26"
  },
  {
    "name": "남면 ",
    "location": "전라남도 장성군 남면 덕성리 691",
    "lat": "35.2520104",
    "lng": "126.7705073",
    "base_date": "2026-02-26"
  },
  {
    "name": "남면 ",
    "location": "전라남도 장성군 남면 분향리 371-13",
    "lat": "35.2473295",
    "lng": "126.8098917",
    "base_date": "2026-02-26"
  },
  {
    "name": "삼계면 ",
    "location": "전라남도 장성군 삼계면 사창로 64-36",
    "lat": "35.2601747",
    "lng": "126.6689531",
    "base_date": "2026-02-26"
  },
  {
    "name": "삼계면 ",
    "location": "전라남도 장성군 삼계면 사창로 64-8",
    "lat": "35.2593495",
    "lng": "126.6660435",
    "base_date": "2026-02-26"
  },
  {
    "name": "삼계면 ",
    "location": "전라남도 장성군 삼계면 사창로 96",
    "lat": "35.261496",
    "lng": "126.6628983",
    "base_date": "2026-02-26"
  },
  {
    "name": "삼계면 ",
    "location": "전라남도 장성군 삼계면 주산2길 17-6",
    "lat": "35.2549193",
    "lng": "126.6721817",
    "base_date": "2026-02-26"
  },
  {
    "name": "삼계면 ",
    "location": "전라남도 장성군 삼계면 주산2길 7",
    "lat": "35.2543918",
    "lng": "126.6709267",
    "base_date": "2026-02-26"
  },
  {
    "name": "황룡면 ",
    "location": "전라남도 장성군 황룡면 장산리 704-1",
    "lat": "35.2947769",
    "lng": "126.7675851",
    "base_date": "2026-02-26"
  },
  {
    "name": "황룡면 ",
    "location": "전라남도 장성군 황룡면 하사2길 23",
    "lat": "35.2928305",
    "lng": "126.7658666",
    "base_date": "2026-02-26"
  },
  {
    "name": "황룡면 ",
    "location": "전라남도 장성군 황룡면 뱃나드리로 20",
    "lat": "35.2922",
    "lng": "126.7579827",
    "base_date": "2026-02-26"
  },
  {
    "name": "황룡면 ",
    "location": "전라남도 장성군 황룡면 단광천길 25",
    "lat": "35.2903029",
    "lng": "126.7743589",
    "base_date": "2026-02-26"
  },
  {
    "name": "황룡면 ",
    "location": "전라남도 장성군 황룡면 단광천길 37",
    "lat": "35.2896988",
    "lng": "126.7734446",
    "base_date": "2026-02-26"
  },
  {
    "name": "황룡면 ",
    "location": "전라남도 장성군 황룡면 신월산4길 2",
    "lat": "35.2890574",
    "lng": "126.7715304",
    "base_date": "2026-02-26"
  },
  {
    "name": "황룡면 ",
    "location": "전라남도 장성군 황룡면 신월산1길 60",
    "lat": "35.2880196",
    "lng": "126.7722936",
    "base_date": "2026-02-26"
  },
  {
    "name": "황룡면 ",
    "location": "전라남도 장성군 황룡면 신월산1길 42",
    "lat": "35.2887507",
    "lng": "126.7741734",
    "base_date": "2026-02-26"
  },
  {
    "name": "황룡면 ",
    "location": "전라남도 장성군 황룡면 교동2길 13",
    "lat": "35.2893195",
    "lng": "126.7742638",
    "base_date": "2026-02-26"
  },
  {
    "name": "황룡면 ",
    "location": "전라남도 장성군 황룡면 신기촌길 31",
    "lat": "35.2842482",
    "lng": "126.7745931",
    "base_date": "2026-02-26"
  },
  {
    "name": "황룡면 ",
    "location": "전라남도 장성군 황룡면 뱃나드리로 169",
    "lat": "35.2905063",
    "lng": "126.7721901",
    "base_date": "2026-02-26"
  },
  {
    "name": "북이면 ",
    "location": "전라남도 장성군 북이면 사가시장1길 6 ",
    "lat": "35.4278071",
    "lng": "126.8081345",
    "base_date": "2026-02-26"
  },
  {
    "name": "북이면 ",
    "location": "전라남도 장성군 북이면 복룡길 42-5",
    "lat": "35.4306591",
    "lng": "126.8167703",
    "base_date": "2026-02-26"
  },
  {
    "name": "북이면 ",
    "location": "전라남도 장성군 북이면 백양로 46",
    "lat": "35.4266857",
    "lng": "126.8086686",
    "base_date": "2026-02-26"
  },
  {
    "name": "북이면 ",
    "location": "전라남도 장성군 북이면 백양로 42",
    "lat": "35.4269934",
    "lng": "126.8087962",
    "base_date": "2026-02-26"
  },
  {
    "name": "북이면 ",
    "location": "전라남도 장성군 북이면 신평전원길 122",
    "lat": "35.4463976",
    "lng": "126.7959316",
    "base_date": "2026-02-26"
  }
]