[
  {
    "name": "고창읍-1",
    "location": "전북특별자치도 고창군 고창읍 월곡1길 43",
    "lat": "35.43872865",
    "lng": "126.7102068",
    "base_date": "2025-06-10"
  },
  {
    "name": "고창읍-2",
    "location": "전북특별자치도 고창군 고창읍 성산로 19",
    "lat": "35.43879148",
    "lng": "126.6931738",
    "base_date": "2025-06-10"
  },
  {
    "name": "고창읍-3",
    "location": "전북특별자치도 고창군 고창읍 월곡로 83",
    "lat": "35.43891105",
    "lng": "126.7111401",
    "base_date": "2025-06-10"
  },
  {
    "name": "고창읍-4",
    "location": "전북특별자치도 고창군 고창읍 동리로 172-14",
    "lat": "35.43059807",
    "lng": "126.7090855",
    "base_date": "2025-06-10"
  },
  {
    "name": "고창읍-5",
    "location": "전북특별자치도 고창군 고창읍 보릿골로 191",
    "lat": "35.44226563",
    "lng": "126.694611",
    "base_date": "2025-06-10"
  },
  {
    "name": "고창읍-6",
    "location": "전북특별자치도 고창군 고창읍 보릿골로 57-15",
    "lat": "35.43033532",
    "lng": "126.6927729",
    "base_date": "2025-06-10"
  },
  {
    "name": "고창읍-7",
    "location": "전북특별자치도 고창군 고창읍 석정2로 151-11",
    "lat": "35.43182121",
    "lng": "126.7377569",
    "base_date": "2025-06-10"
  },
  {
    "name": "고창읍-8",
    "location": "전북특별자치도 고창군 고창읍 모양성로 100-6",
    "lat": "35.44004715",
    "lng": "126.6996471",
    "base_date": "2025-06-10"
  },
  {
    "name": "고창읍-9",
    "location": "전북특별자치도 고창군 고창읍 소반2길 14",
    "lat": "35.43872659",
    "lng": "126.6969587",
    "base_date": "2025-06-10"
  },
  {
    "name": "고창읍-10",
    "location": "전북특별자치도 고창군 고창읍 성산로 50",
    "lat": "35.43798402",
    "lng": "126.6978673",
    "base_date": "2025-06-10"
  },
  {
    "name": "고창읍-11",
    "location": "전북특별자치도 고창군 고창읍 성산4길 26",
    "lat": "35.43641468",
    "lng": "126.698348",
    "base_date": "2025-06-10"
  },
  {
    "name": "고창읍-12",
    "location": "전북특별자치도 고창군 고창읍 성산4길 19",
    "lat": "35.4368559",
    "lng": "126.697568",
    "base_date": "2025-06-10"
  },
  {
    "name": "고창읍-13",
    "location": "전북특별자치도 고창군 고창읍 성산8길 17",
    "lat": "35.43750289",
    "lng": "126.6977215",
    "base_date": "2025-06-10"
  },
  {
    "name": "고창읍-14",
    "location": "전북특별자치도 고창군 고창읍 남정1길 13",
    "lat": "35.43406837",
    "lng": "126.697102",
    "base_date": "2025-06-10"
  },
  {
    "name": "고창읍-15",
    "location": "전북특별자치도 고창군 고창읍 천변북로 47",
    "lat": "35.43476396",
    "lng": "126.6971757",
    "base_date": "2025-06-10"
  },
  {
    "name": "고창읍-16",
    "location": "전북특별자치도 고창군 고창읍 중앙로 296",
    "lat": "35.43474991",
    "lng": "126.707897",
    "base_date": "2025-06-10"
  },
  {
    "name": "고창읍-17",
    "location": "전북특별자치도 고창군 고창읍 교촌1길 24-1",
    "lat": "35.4371033",
    "lng": "126.7044793",
    "base_date": "2025-06-10"
  },
  {
    "name": "고창읍-18",
    "location": "전북특별자치도 고창군 고창읍 향교길 42",
    "lat": "35.43784272",
    "lng": "126.7040298",
    "base_date": "2025-06-10"
  },
  {
    "name": "고창읍-19",
    "location": "전북특별자치도 고창군 고창읍 월곡1길 28",
    "lat": "35.43727336",
    "lng": "126.709596",
    "base_date": "2025-06-10"
  },
  {
    "name": "고창읍-20",
    "location": "전북특별자치도 고창군 고창읍 월곡9길 18-10",
    "lat": "35.43690536",
    "lng": "126.7091486",
    "base_date": "2025-06-10"
  },
  {
    "name": "고창읍-21",
    "location": "전북특별자치도 고창군 고창읍 월곡로 50",
    "lat": "35.4360342",
    "lng": "126.7111622",
    "base_date": "2025-06-10"
  },
  {
    "name": "고창읍-22",
    "location": "전북특별자치도 고창군 고창읍 월곡14길 14",
    "lat": "35.43722149",
    "lng": "126.7124395",
    "base_date": "2025-06-10"
  },
  {
    "name": "고창읍-23",
    "location": "전북특별자치도 고창군 고창읍 동리로 135-1",
    "lat": "35.43278128",
    "lng": "126.7069797",
    "base_date": "2025-06-10"
  },
  {
    "name": "고창읍-24",
    "location": "전북특별자치도 고창군 고창읍 동리로 130",
    "lat": "35.43240104",
    "lng": "126.7065785",
    "base_date": "2025-06-10"
  },
  {
    "name": "고창읍-25",
    "location": "전북특별자치도 고창군 고창읍 동산2길 30-2",
    "lat": "35.43146357",
    "lng": "126.7079493",
    "base_date": "2025-06-10"
  },
  {
    "name": "고창읍-26",
    "location": "전북특별자치도 고창군 고창읍 동리로 150",
    "lat": "35.43236345",
    "lng": "126.7085896",
    "base_date": "2025-06-10"
  },
  {
    "name": "고창읍-27",
    "location": "전북특별자치도 고창군 고창읍 동리로 171",
    "lat": "35.431289",
    "lng": "126.7106518",
    "base_date": "2025-06-10"
  },
  {
    "name": "고창읍-28",
    "location": "전북특별자치도 고창군 고창읍 천변남로 76",
    "lat": "35.43397553",
    "lng": "126.7004065",
    "base_date": "2025-06-10"
  },
  {
    "name": "고창읍-29",
    "location": "전북특별자치도 고창군 고창읍 남정14길 7-1",
    "lat": "35.43416408",
    "lng": "126.6993986",
    "base_date": "2025-06-10"
  },
  {
    "name": "고창읍-30",
    "location": "전북특별자치도 고창군 고창읍 남정6길 33",
    "lat": "35.43186694",
    "lng": "126.6990805",
    "base_date": "2025-06-10"
  },
  {
    "name": "고창읍-31",
    "location": "전북특별자치도 고창군 고창읍 남정9길 11-2",
    "lat": "35.4315007",
    "lng": "126.6997174",
    "base_date": "2025-06-10"
  },
  {
    "name": "고창읍-32",
    "location": "전북특별자치도 고창군 고창읍 남정6길 48",
    "lat": "35.43173763",
    "lng": "126.7006511",
    "base_date": "2025-06-10"
  },
  {
    "name": "고창읍-33",
    "location": "전북특별자치도 고창군 고창읍 중거리당산로 137",
    "lat": "35.43168362",
    "lng": "126.7007503",
    "base_date": "2025-06-10"
  },
  {
    "name": "고창읍-34",
    "location": "전북특별자치도 고창군 고창읍 서문2길 7",
    "lat": "35.43047107",
    "lng": "126.7006765",
    "base_date": "2025-06-10"
  },
  {
    "name": "고창읍-35",
    "location": "전북특별자치도 고창군 고창읍 중거리당산로 88",
    "lat": "35.42780677",
    "lng": "126.6977649",
    "base_date": "2025-06-10"
  },
  {
    "name": "고창읍-36",
    "location": "전북특별자치도 고창군 고창읍 중거리당산로 108",
    "lat": "35.42912148",
    "lng": "126.6991684",
    "base_date": "2025-06-10"
  },
  {
    "name": "고창읍-37",
    "location": "전북특별자치도 고창군 고창읍 중거리당산로 102",
    "lat": "35.42892065",
    "lng": "126.6998487",
    "base_date": "2025-06-10"
  },
  {
    "name": "고창읍-38",
    "location": "전북특별자치도 고창군 고창읍 남구4길 27",
    "lat": "35.42869365",
    "lng": "126.6971923",
    "base_date": "2025-06-10"
  },
  {
    "name": "고창읍-39",
    "location": "전북특별자치도 고창군 고창읍 남정1길 60",
    "lat": "35.42976703",
    "lng": "126.6964396",
    "base_date": "2025-06-10"
  },
  {
    "name": "고창읍-40",
    "location": "전북특별자치도 고창군 고창읍 남정2길 15",
    "lat": "35.43050838",
    "lng": "126.6969847",
    "base_date": "2025-06-10"
  },
  {
    "name": "고창읍-41",
    "location": "전북특별자치도 고창군 고창읍 남정2길 21",
    "lat": "35.43072363",
    "lng": "126.697674",
    "base_date": "2025-06-10"
  },
  {
    "name": "고창읍-42",
    "location": "전북특별자치도 고창군 고창읍 남정1길 41",
    "lat": "35.43152585",
    "lng": "126.697156",
    "base_date": "2025-06-10"
  },
  {
    "name": "고창읍-43",
    "location": "전북특별자치도 고창군 고창읍 천변남로 12",
    "lat": "35.43388665",
    "lng": "126.69443",
    "base_date": "2025-06-10"
  },
  {
    "name": "고창읍-44",
    "location": "전북특별자치도 고창군 고창읍 화신1길 16",
    "lat": "35.43598966",
    "lng": "126.6941715",
    "base_date": "2025-06-10"
  },
  {
    "name": "고창읍-45",
    "location": "전북특별자치도 고창군 고창읍 보릿골로 195",
    "lat": "35.4422281",
    "lng": "126.6934225",
    "base_date": "2025-06-10"
  },
  {
    "name": "고창읍-46",
    "location": "전북특별자치도 고창군 고창읍 화신2길 5",
    "lat": "35.43579152",
    "lng": "126.693768",
    "base_date": "2025-06-10"
  },
  {
    "name": "고창읍-47",
    "location": "전북특별자치도 고창군 고창읍 화신2길 17-6",
    "lat": "35.4369545",
    "lng": "126.6935274",
    "base_date": "2025-06-10"
  },
  {
    "name": "고창읍-48",
    "location": "전북특별자치도 고창군 고창읍 화신2길 17-2",
    "lat": "35.43687314",
    "lng": "126.6938274",
    "base_date": "2025-06-10"
  },
  {
    "name": "고창읍-49",
    "location": "전북특별자치도 고창군 고창읍 모양성로 85-11",
    "lat": "35.43874873",
    "lng": "126.698821",
    "base_date": "2025-06-10"
  },
  {
    "name": "고창읍-50",
    "location": "전북특별자치도 고창군 고창읍 향교길 20",
    "lat": "35.4368994",
    "lng": "126.702597",
    "base_date": "2025-06-10"
  },
  {
    "name": "고창읍-51",
    "location": "전북특별자치도 고창군 고창읍 교촌1길 22",
    "lat": "35.4369192",
    "lng": "126.7049367",
    "base_date": "2025-06-10"
  },
  {
    "name": "고창읍-52",
    "location": "전북특별자치도 고창군 고창읍 월곡10길 6",
    "lat": "35.43602013",
    "lng": "126.7115724",
    "base_date": "2025-06-10"
  },
  {
    "name": "고창읍-53",
    "location": "전북특별자치도 고창군 고창읍 월곡10길 17-13",
    "lat": "35.43723025",
    "lng": "126.7128196",
    "base_date": "2025-06-10"
  },
  {
    "name": "고창읍-54",
    "location": "전북특별자치도 고창군 고창읍 월곡6길 47",
    "lat": "35.43595194",
    "lng": "126.7145875",
    "base_date": "2025-06-10"
  },
  {
    "name": "고창읍-55",
    "location": "전북특별자치도 고창군 고창읍 월곡6길 39",
    "lat": "35.43542732",
    "lng": "126.7149066",
    "base_date": "2025-06-10"
  },
  {
    "name": "고창읍-56",
    "location": "전북특별자치도 고창군 고창읍 월곡6길 27",
    "lat": "0",
    "lng": "0",
    "base_date": "2025-06-10"
  },
  {
    "name": "고창읍-57",
    "location": "전북특별자치도 고창군 고창읍 월곡15길 1",
    "lat": "35.43816326",
    "lng": "126.7096865",
    "base_date": "2025-06-10"
  },
  {
    "name": "고창읍-58",
    "location": "전북특별자치도 고창군 고창읍 동서대로 2443",
    "lat": "35.43367142",
    "lng": "126.7177618",
    "base_date": "2025-06-10"
  },
  {
    "name": "고창읍-59",
    "location": "전북특별자치도 고창군 고창읍 중앙로 269",
    "lat": "35.43572604",
    "lng": "126.7048172",
    "base_date": "2025-06-10"
  },
  {
    "name": "고창읍-60",
    "location": "전북특별자치도 고창군 고창읍 교촌2길 21",
    "lat": "35.43690032",
    "lng": "126.7073611",
    "base_date": "2025-06-10"
  },
  {
    "name": "고창읍-61",
    "location": "전북특별자치도 고창군 고창읍 교촌2길 20",
    "lat": "35.4365191",
    "lng": "126.7064857",
    "base_date": "2025-06-10"
  },
  {
    "name": "고창읍-62",
    "location": "전북특별자치도 고창군 고창읍 월곡14길 19",
    "lat": "35.43761965",
    "lng": "126.7129165",
    "base_date": "2025-06-10"
  },
  {
    "name": "고창읍-63",
    "location": "전북특별자치도 고창군 고창읍 월곡1길 44",
    "lat": "35.43831127",
    "lng": "126.7099909",
    "base_date": "2025-06-10"
  },
  {
    "name": "고창읍-64",
    "location": "전북특별자치도 고창군 고창읍 월곡8길 18",
    "lat": "35.43561431",
    "lng": "126.7129898",
    "base_date": "2025-06-10"
  },
  {
    "name": "고창읍-65",
    "location": "전북특별자치도 고창군 고창읍 천변북로 33",
    "lat": "35.43442912",
    "lng": "126.6957757",
    "base_date": "2025-06-10"
  },
  {
    "name": "고창읍-66",
    "location": "전북특별자치도 고창군 고창읍 보릿골로 126-7",
    "lat": "35.43652832",
    "lng": "126.6964375",
    "base_date": "2025-06-10"
  },
  {
    "name": "고창읍-67",
    "location": "전북특별자치도 고창군 고창읍 고인돌대로 1758-5",
    "lat": "35.43695246",
    "lng": "126.6931111",
    "base_date": "2025-06-10"
  },
  {
    "name": "고창읍-68",
    "location": "전북특별자치도 고창군 고창읍 소반2길 23",
    "lat": "35.4387699",
    "lng": "126.69831",
    "base_date": "2025-06-10"
  },
  {
    "name": "고창읍-69",
    "location": "전북특별자치도 고창군 고창읍 교촌5길 20-2",
    "lat": "35.43649765",
    "lng": "126.7081981",
    "base_date": "2025-06-10"
  },
  {
    "name": "고창읍-70",
    "location": "전북특별자치도 고창군 고창읍 성산1길 21",
    "lat": "35.43729682",
    "lng": "126.6968448",
    "base_date": "2025-06-10"
  },
  {
    "name": "고창읍-71",
    "location": "전북특별자치도 고창군 고창읍 보릿골로 176",
    "lat": "35.4413272",
    "lng": "126.6964428",
    "base_date": "2025-06-10"
  },
  {
    "name": "고창읍-72",
    "location": "전북특별자치도 고창군 고창읍 천변남로 38",
    "lat": "35.43386474",
    "lng": "126.6965726",
    "base_date": "2025-06-10"
  },
  {
    "name": "고수면-1",
    "location": "전북특별자치도 고창군 고수면 고수로 9",
    "lat": "35.40886378",
    "lng": "126.6786364",
    "base_date": "2025-06-10"
  },
  {
    "name": "고수면-2",
    "location": "전북특별자치도 고창군 고수면 고수로 23",
    "lat": "35.40867676",
    "lng": "126.6802343",
    "base_date": "2025-06-10"
  },
  {
    "name": "고수면-3",
    "location": "전북특별자치도 고창군 고수면 상평2길 9",
    "lat": "35.40238362",
    "lng": "126.6847781",
    "base_date": "2025-06-10"
  },
  {
    "name": "고수면-4",
    "location": "전북특별자치도 고창군 고수면 문화마을길 7-1",
    "lat": "35.40684947",
    "lng": "126.6837759",
    "base_date": "2025-06-10"
  },
  {
    "name": "고수면-5",
    "location": "전북특별자치도 고창군 고수면 문화마을길 3-10",
    "lat": "35.40743614",
    "lng": "126.6834304",
    "base_date": "2025-06-10"
  },
  {
    "name": "고수면-6",
    "location": "전북특별자치도 고창군 고수면 연동1길 65-1",
    "lat": "35.3944175",
    "lng": "126.6756566",
    "base_date": "2025-06-10"
  },
  {
    "name": "고수면-7",
    "location": "전북특별자치도 고창군 고수면 내창수곡길 64",
    "lat": "35.38866874",
    "lng": "126.6696172",
    "base_date": "2025-06-10"
  },
  {
    "name": "무장면-1",
    "location": "전북특별자치도 고창군 무장면 무장읍성길 39",
    "lat": "35.41711456",
    "lng": "126.5581783",
    "base_date": "2025-06-10"
  },
  {
    "name": "무장면-2",
    "location": "전북특별자치도 고창군 무장면 왕제산로 725",
    "lat": "35.41442839",
    "lng": "126.560604",
    "base_date": "2025-06-10"
  },
  {
    "name": "무장면-3",
    "location": "전북특별자치도 고창군 무장면 반송길 12",
    "lat": "35.41176412",
    "lng": "126.5739128",
    "base_date": "2025-06-10"
  },
  {
    "name": "공음면-1",
    "location": "전북특별자치도 고창군 공음면 공음길 56",
    "lat": "35.3785796",
    "lng": "126.5136744",
    "base_date": "2025-06-10"
  },
  {
    "name": "상하면-1",
    "location": "전북특별자치도 고창군 상하면 상하로 58",
    "lat": "35.44332876",
    "lng": "126.492312",
    "base_date": "2025-06-10"
  },
  {
    "name": "해리면-1",
    "location": "전북특별자치도 고창군 해리면 중앙로 72",
    "lat": "35.45877315",
    "lng": "126.5415451",
    "base_date": "2025-06-10"
  },
  {
    "name": "대산면-1",
    "location": "전북특별자치도 고창군 대산면 고산성로 4",
    "lat": "35.33921252",
    "lng": "126.6007943",
    "base_date": "2025-06-10"
  },
  {
    "name": "대산면-2",
    "location": "전북특별자치도 고창군 대산면 대산길 69-9",
    "lat": "35.34156006",
    "lng": "126.5991713",
    "base_date": "2025-06-10"
  },
  {
    "name": "대산면-3",
    "location": "전북특별자치도 고창군 대산면 사거1길 16",
    "lat": "35.33743077",
    "lng": "126.59588",
    "base_date": "2025-06-10"
  },
  {
    "name": "대산면-4",
    "location": "전북특별자치도 고창군 대산면 매산초등길 21",
    "lat": "35.33999197",
    "lng": "126.596338",
    "base_date": "2025-06-10"
  },
  {
    "name": "대산면-5",
    "location": "전북특별자치도 고창군 대산면 사거2길 9",
    "lat": "35.33743123",
    "lng": "126.5967212",
    "base_date": "2025-06-10"
  },
  {
    "name": "대산면-6",
    "location": "전북특별자치도 고창군 대산면 사거1길 80",
    "lat": "35.34115405",
    "lng": "126.5959344",
    "base_date": "2025-06-10"
  },
  {
    "name": "신림면-1",
    "location": "전북특별자치도 고창군 신림면 자포마산길 29-1",
    "lat": "35.47409103",
    "lng": "126.6998667",
    "base_date": "2025-06-10"
  },
  {
    "name": "신림면-2",
    "location": "전북특별자치도 고창군 신림면 신림로 153",
    "lat": "35.48906959",
    "lng": "126.7143478",
    "base_date": "2025-06-10"
  }
]